{
  "elements": [
    {
      "type": "node",
      "id": 107280224,
      "lat": -35.3537438,
      "lon": 149.2329859,
      "tags": {
        "amenity": "pub",
        "created_by": "JOSM",
        "name": "Tourist Hotel",
        "tourism": "hotel"
      }
    },
    {
      "type": "node",
      "id": 107280244,
      "lat": -35.3540831,
      "lon": 149.2331839,
      "tags": {
        "amenity": "pub",
        "name": "Walsh's Hotel"
      }
    },
    {
      "type": "node",
      "id": 160354095,
      "lat": -35.3458331,
      "lon": 149.2282682,
      "tags": {
        "amenity": "pub",
        "created_by": "JOSM",
        "loc_name": "Top Pub",
        "name": "Hotel Queanbeyan",
        "tourism": "hotel"
      }
    },
    {
      "type": "node",
      "id": 249527690,
      "lat": -35.2091093,
      "lon": 149.0735343,
      "tags": {
        "amenity": "fast_food",
        "check_date": "2024-06-29",
        "cuisine": "pizza;burger;fish_and_chips",
        "name": "Evatt Takeaway",
        "takeaway": "yes"
      }
    },
    {
      "type": "node",
      "id": 250665346,
      "lat": -35.1971757,
      "lon": 149.118422,
      "tags": {
        "amenity": "fast_food",
        "name": "Palmerston Pizza & Food Bar"
      }
    },
    {
      "type": "node",
      "id": 251873355,
      "lat": -35.1834908,
      "lon": 149.0988048,
      "tags": {
        "amenity": "fast_food",
        "created_by": "JOSM",
        "name": "Nichols Takeaway & Pizza"
      }
    },
    {
      "type": "node",
      "id": 251873357,
      "lat": -35.1834969,
      "lon": 149.0985375,
      "tags": {
        "amenity": "restaurant",
        "name": "Cucina Ristorante",
        "opening_hours": "We 15:00-21:00; Th-Su 13:30-21:00",
        "phone": "+61 2 6242 5302",
        "website": "https://www.cucinaristorante.com.au/"
      }
    },
    {
      "type": "node",
      "id": 251873359,
      "lat": -35.1834994,
      "lon": 149.0986552,
      "tags": {
        "amenity": "restaurant",
        "name": "Nicholls Chinese Food"
      }
    },
    {
      "type": "node",
      "id": 251876412,
      "lat": -35.1928936,
      "lon": 149.086382,
      "tags": {
        "addr:housenumber": "3",
        "addr:street": "Gold Creek Road",
        "amenity": "pub",
        "created_by": "JOSM",
        "name": "George Harcourt Inn",
        "opening_hours": "Tu-Su 11:00-22:00",
        "outdoor_seating": "yes",
        "phone": "+61 2 6230 2484",
        "website": "https://georgeharcourt.com"
      }
    },
    {
      "type": "node",
      "id": 251876417,
      "lat": -35.1926079,
      "lon": 149.0856638,
      "tags": {
        "amenity": "cafe",
        "created_by": "JOSM",
        "name": "Cottage Kitchen"
      }
    },
    {
      "type": "node",
      "id": 261538807,
      "lat": -35.4173795,
      "lon": 149.0682491,
      "tags": {
        "amenity": "pub",
        "name": "P. J. O'Reilly's",
        "website": "https://www.pjstugg.com/"
      }
    },
    {
      "type": "node",
      "id": 262911636,
      "lat": -35.3265953,
      "lon": 149.0823738,
      "tags": {
        "amenity": "pub",
        "created_by": "Potlatch 0.9",
        "name": "Statesman Hotel"
      }
    },
    {
      "type": "node",
      "id": 266233467,
      "lat": -35.252188,
      "lon": 149.124553,
      "tags": {
        "amenity": "cafe",
        "name": "The Front Cafe and Gallery",
        "shop": "art"
      }
    },
    {
      "type": "node",
      "id": 284151294,
      "lat": -35.3397785,
      "lon": 149.0523426,
      "tags": {
        "amenity": "fast_food",
        "brand": "Subway",
        "brand:wikidata": "Q244457",
        "cuisine": "sandwich",
        "name": "Subway",
        "takeaway": "yes",
        "website": "https://www.subway.com/en-AU"
      }
    },
    {
      "type": "node",
      "id": 288983017,
      "lat": -35.3797459,
      "lon": 149.0579835,
      "tags": {
        "amenity": "pub",
        "name": "Kambah Inn"
      }
    },
    {
      "type": "node",
      "id": 289803124,
      "lat": -35.3415117,
      "lon": 149.0513053,
      "tags": {
        "amenity": "fast_food",
        "brand": "Domino's",
        "brand:wikidata": "Q839466",
        "brand:wikipedia": "en:Domino's Pizza",
        "cuisine": "pizza",
        "name": "Domino's",
        "takeaway": "yes"
      }
    },
    {
      "type": "node",
      "id": 289809311,
      "lat": -35.3423027,
      "lon": 149.0519058,
      "tags": {
        "amenity": "fast_food",
        "name": "Kingsley Chicken"
      }
    },
    {
      "type": "node",
      "id": 298599087,
      "lat": -35.3006555,
      "lon": 149.1379069,
      "tags": {
        "amenity": "restaurant",
        "name": "Sculpture Garden Restaurant"
      }
    },
    {
      "type": "node",
      "id": 298684924,
      "lat": -35.2974117,
      "lon": 149.0910454,
      "tags": {
        "amenity": "cafe",
        "check_date:opening_hours": "2024-07-21",
        "name": "The Yarralumla Gallery and The Oaks Brasserie",
        "opening_hours": "Mo-Fr 10:00-16:00; Sa,Su 08:30-16:00",
        "source": "local_knowledge"
      }
    },
    {
      "type": "node",
      "id": 311744825,
      "lat": -35.2772803,
      "lon": 149.129019,
      "tags": {
        "amenity": "restaurant",
        "check_date": "2025-11-30",
        "cuisine": "regional;african",
        "name": "Ethiopian on Northbourne"
      }
    },
    {
      "type": "node",
      "id": 318855118,
      "lat": -35.3243225,
      "lon": 149.1729458,
      "tags": {
        "addr:housenumber": "106",
        "addr:postcode": "2609",
        "addr:state": "ACT",
        "addr:street": "Maryborough Street",
        "addr:suburb": "Fyshwick",
        "amenity": "cafe",
        "name": "Brew 'n' Bun",
        "opening_hours": "Mo-Fr 06:00-15:00; Sa-Su 07:00-14:00",
        "outdoor_seating": "yes",
        "phone": "+61 2 6182 4247",
        "website": "https://www.brewnbun.com.au/"
      }
    },
    {
      "type": "node",
      "id": 318855169,
      "lat": -35.3238218,
      "lon": 149.1786557,
      "tags": {
        "amenity": "cafe",
        "created_by": "Potlatch 0.10f",
        "cuisine": "sandwich",
        "name": "Rolls Choice"
      }
    },
    {
      "type": "node",
      "id": 318855267,
      "lat": -35.324298,
      "lon": 149.1793681,
      "tags": {
        "amenity": "cafe",
        "cuisine": "pie",
        "name": "Elaine's Gourmet Pies"
      }
    },
    {
      "type": "node",
      "id": 318855351,
      "lat": -35.3250403,
      "lon": 149.1771194,
      "tags": {
        "amenity": "cafe",
        "created_by": "Potlatch 0.10f",
        "cuisine": "noodle",
        "name": "Little Noodle Box"
      }
    },
    {
      "type": "node",
      "id": 318855782,
      "lat": -35.3278416,
      "lon": 149.1779126,
      "tags": {
        "amenity": "fast_food",
        "brand": "Hungry Jack's",
        "brand:wikidata": "Q3036373",
        "brand:wikipedia": "en:Hungry Jack's",
        "cuisine": "burger",
        "delivery": "no",
        "drive_through": "yes",
        "name": "Hungry Jack's",
        "takeaway": "yes"
      }
    },
    {
      "type": "node",
      "id": 318856596,
      "lat": -35.3157828,
      "lon": 149.1413898,
      "tags": {
        "addr:housenumber": "52",
        "addr:postcode": "2604",
        "addr:state": "ACT",
        "addr:street": "Jardine Street",
        "addr:suburb": "Kingston",
        "amenity": "pub",
        "check_date": "2025-06-15",
        "contact:facebook": "https://www.facebook.com/DurhamCastleArms",
        "contact:instagram": "https://www.instagram.com/thedurhamcastlearms/",
        "email": "bookings@thedurhampub.com.au",
        "name": "Durham Castle Arms",
        "opening_hours": "Mo-Su 11:30-01:00",
        "phone": "+61 2 6295 1769",
        "website": "https://thedurhampub.com.au/",
        "website:menu": "https://thedurhampub.com.au/wp-content/uploads/2024-Durham-Menu.pdf"
      }
    },
    {
      "type": "node",
      "id": 318857045,
      "lat": -35.3212852,
      "lon": 149.1339213,
      "tags": {
        "amenity": "fast_food",
        "brand": "McDonald's",
        "brand:wikidata": "Q38076",
        "brand:wikipedia": "en:McDonald's",
        "cuisine": "burger",
        "drive_through": "no",
        "name": "McDonald's",
        "source": "local_knowledge",
        "takeaway": "yes"
      }
    },
    {
      "type": "node",
      "id": 318857112,
      "lat": -35.3205964,
      "lon": 149.1334176,
      "tags": {
        "amenity": "cafe",
        "cuisine": "sushi",
        "name": "Mee Sushi",
        "name:fa": "می سوشی",
        "wheelchair": "yes",
        "wheelchair:description": "The interior is tightly packed & the front door is difficult to open independently, but the staff are very helpful and gladly/proactively open the door & move tables as necessary."
      }
    },
    {
      "type": "node",
      "id": 318857132,
      "lat": -35.3204423,
      "lon": 149.1334519,
      "tags": {
        "amenity": "cafe",
        "cuisine": "turkish",
        "name": "Kismet"
      }
    },
    {
      "type": "node",
      "id": 318858079,
      "lat": -35.3485978,
      "lon": 149.0866667,
      "tags": {
        "amenity": "restaurant"
      }
    },
    {
      "type": "node",
      "id": 318858084,
      "lat": -35.3482487,
      "lon": 149.0866996,
      "tags": {
        "amenity": "restaurant",
        "cuisine": "thai",
        "name": "Lemongrass",
        "phone": "+61 2 6282 1144",
        "website": "https://lemongrassthai.com.au/"
      }
    },
    {
      "type": "node",
      "id": 318858903,
      "lat": -35.3526905,
      "lon": 149.0878263,
      "tags": {
        "addr:housenumber": "64",
        "amenity": "restaurant",
        "cuisine": "indian",
        "name": "Indian Affair",
        "website": "https://www.indianaffair.com.au/"
      }
    },
    {
      "type": "node",
      "id": 318859652,
      "lat": -35.3627241,
      "lon": 149.081596,
      "tags": {
        "addr:housenumber": "70",
        "addr:street": "Hodgson Crescent",
        "amenity": "restaurant",
        "cuisine": "indian",
        "name": "Rama’s Restaurant",
        "source": "local_knowledge",
        "website": "https://www.ramas.com.au/"
      }
    },
    {
      "type": "node",
      "id": 330163582,
      "lat": -35.3204193,
      "lon": 149.1329408,
      "tags": {
        "amenity": "restaurant",
        "cuisine": "south_american",
        "name": "El Torogoz"
      }
    },
    {
      "type": "node",
      "id": 330419883,
      "lat": -35.3424266,
      "lon": 149.1081443,
      "tags": {
        "created_by": "Potlatch 0.10f",
        "name": "Garran Bakery",
        "shop": "bakery",
        "source": "survey"
      }
    },
    {
      "type": "node",
      "id": 330420576,
      "lat": -35.3422536,
      "lon": 149.1080771,
      "tags": {
        "amenity": "restaurant",
        "name": "Mamak Corner",
        "source": "survey"
      }
    },
    {
      "type": "node",
      "id": 331415236,
      "lat": -35.3195816,
      "lon": 149.1391005,
      "tags": {
        "addr:housenumber": "3",
        "addr:street": "Oxley Street",
        "amenity": "pub",
        "name": "Eastlakes Football Club",
        "opening_hours": "Mo-Su,PH 10:00-04:00",
        "toilets:wheelchair": "yes",
        "wheelchair": "yes"
      }
    },
    {
      "type": "node",
      "id": 331415749,
      "lat": -35.3194787,
      "lon": 149.137856,
      "tags": {
        "alt_name": "Kingo",
        "amenity": "pub",
        "name": "Kingston Hotel",
        "opening_hours": "Mo-Su 10:00-18:00+"
      }
    },
    {
      "type": "node",
      "id": 340119458,
      "lat": -35.3519132,
      "lon": 149.2344239,
      "tags": {
        "amenity": "food_court"
      }
    },
    {
      "type": "node",
      "id": 407779123,
      "lat": -35.2788944,
      "lon": 149.1333205,
      "tags": {
        "amenity": "restaurant",
        "name": "Xi'an Biang Biang"
      }
    },
    {
      "type": "node",
      "id": 430091185,
      "lat": -35.2969137,
      "lon": 149.1338572,
      "tags": {
        "amenity": "restaurant",
        "check_date": "2024-09-29",
        "name": "Waters Edge Restaurant",
        "opening_hours": "We-Su 12:00-15:00,18:00+"
      }
    },
    {
      "type": "node",
      "id": 433726291,
      "lat": -35.2974266,
      "lon": 149.1351749,
      "tags": {
        "amenity": "cafe",
        "cuisine": "italian",
        "name": "The Jetty Cafe",
        "smoking": "no"
      }
    },
    {
      "type": "node",
      "id": 439243280,
      "lat": -35.3207013,
      "lon": 149.1342909,
      "tags": {
        "shop": "bakery"
      }
    },
    {
      "type": "node",
      "id": 441029851,
      "lat": -35.2394855,
      "lon": 149.0524652,
      "tags": {
        "addr:housenumber": "6-8",
        "addr:street": "Page Place",
        "amenity": "pub",
        "check_date": "2023-10-29",
        "contact:facebook": "https://facebook.com/PageTavern/",
        "name": "Page Tavern"
      }
    },
    {
      "type": "node",
      "id": 444671177,
      "lat": -35.2433916,
      "lon": 149.0422848,
      "tags": {
        "alt_name": "Kentucky Fried Chicken",
        "amenity": "fast_food",
        "branch": "Hawker",
        "brand": "KFC",
        "brand:wikidata": "Q524757",
        "cuisine": "chicken",
        "delivery": "no",
        "name": "KFC",
        "opening_hours": "Mo-Su 10:30-22:00; Fr,Sa 10:30-23:00",
        "takeaway": "yes",
        "website": "https://www.kfc.com.au/restaurants/kfc-hawker/2614"
      }
    },
    {
      "type": "node",
      "id": 445184969,
      "lat": -35.3525579,
      "lon": 149.0759576,
      "tags": {
        "amenity": "cafe",
        "check_date": "2026-03-22",
        "check_date:opening_hours": "2026-03-22",
        "contact:facebook": "abitetoeatchifley",
        "contact:instagram": "abitetoeatchifley",
        "email": "contact@abitetoeat.com.au",
        "name": "A Bite to Eat",
        "opening_hours": "Mo-Fr 06:30-15:00; Sa 07:00-15:00; Su 07:30-14:30",
        "phone": "+61 2 6170 2962",
        "source": "local knowledge",
        "website": "https://www.abitetoeat.com.au/"
      }
    },
    {
      "type": "node",
      "id": 454160749,
      "lat": -35.2787386,
      "lon": 149.1257955,
      "tags": {
        "amenity": "fast_food",
        "cuisine": "asian",
        "description": "Was Izumi - now across road",
        "name": "The corner market"
      }
    },
    {
      "type": "node",
      "id": 454161144,
      "lat": -35.2786024,
      "lon": 149.1259167,
      "tags": {
        "amenity": "restaurant",
        "description": "Quality Vietnamese dining",
        "name": "Miss Van's",
        "opening_hours": "We 17:30-22:30; Th-Sa 11:30-15:00, 17:30-22:30; Su 11:30-15:00",
        "phone": "+61 499 560 767",
        "website": "https://www.missvans.com.au/"
      }
    },
    {
      "type": "node",
      "id": 457720444,
      "lat": -35.2264949,
      "lon": 149.0547581,
      "tags": {
        "check_date": "2023-11-24",
        "name": "Florey Bakery",
        "opening_hours": "Mo-Fr 07:00-18:00; Sa,Su 07:00-17:00; PH 07:00-16:00",
        "payment:cash": "yes",
        "payment:credit_cards": "yes",
        "payment:debit_cards": "yes",
        "shop": "bakery",
        "wheelchair": "yes"
      }
    },
    {
      "type": "node",
      "id": 457758490,
      "lat": -35.2434538,
      "lon": 149.0433866,
      "tags": {
        "check_date": "2023-10-27",
        "name": "Oriental Bakery Hawker",
        "shop": "bakery"
      }
    },
    {
      "type": "node",
      "id": 457758491,
      "lat": -35.2433075,
      "lon": 149.0436685,
      "tags": {
        "amenity": "fast_food",
        "check_date": "2023-10-27",
        "disused:amenity": "fast_food",
        "name": "Hawker Takeaway and Pizza"
      }
    },
    {
      "type": "node",
      "id": 458724972,
      "lat": -35.3463314,
      "lon": 149.0869972,
      "tags": {
        "amenity": "fast_food",
        "brand": "McDonald's",
        "brand:wikidata": "Q38076",
        "brand:wikipedia": "en:McDonald's",
        "cuisine": "burger",
        "level": "1",
        "name": "McDonald's",
        "operator": "McDonald's",
        "takeaway": "yes"
      }
    },
    {
      "type": "node",
      "id": 489538176,
      "lat": -35.1906528,
      "lon": 149.0833128,
      "tags": {
        "addr:housenumber": "39",
        "addr:street": "O'Hanlon Place",
        "addr:unit": "1",
        "amenity": "cafe",
        "name": "Cafe Injoy",
        "opening_hours": "Mo-Su 08:00-16:00",
        "website": "https://www.cafeinjoy.com.au/"
      }
    },
    {
      "type": "node",
      "id": 493868870,
      "lat": -35.3341307,
      "lon": 149.1654138,
      "tags": {
        "amenity": "cafe"
      }
    },
    {
      "type": "node",
      "id": 505067531,
      "lat": -35.2380225,
      "lon": 149.0715096,
      "tags": {
        "addr:housenumber": "80",
        "addr:street": "Emu Bank",
        "amenity": "pub",
        "check_date": "2023-10-20",
        "name": "Lighthouse",
        "website": "https://lighthousepub.com.au/"
      }
    },
    {
      "type": "node",
      "id": 505067560,
      "lat": -35.2382875,
      "lon": 149.0713698,
      "tags": {
        "addr:housenumber": "68",
        "addr:street": "Emu Bank",
        "addr:unit": "Units 5 & 6",
        "amenity": "fast_food",
        "brand": "Subway",
        "brand:wikidata": "Q244457",
        "brand:wikipedia": "en:Subway (restaurant)",
        "check_date": "2023-10-20",
        "cuisine": "sandwich",
        "name": "Subway",
        "operator": "Subway",
        "takeaway": "yes"
      }
    },
    {
      "type": "node",
      "id": 512106168,
      "lat": -35.2367468,
      "lon": 149.0709722,
      "tags": {
        "amenity": "fast_food",
        "check_date": "2023-10-21",
        "cuisine": "kebab",
        "name": "Ali Baba"
      }
    },
    {
      "type": "node",
      "id": 512106170,
      "lat": -35.2398833,
      "lon": 149.0744367,
      "tags": {
        "amenity": "fast_food",
        "brand": "McDonald's",
        "brand:wikidata": "Q38076",
        "brand:wikipedia": "en:McDonald's",
        "check_date": "2023-08-07",
        "cuisine": "burger",
        "drive_through": "yes",
        "name": "McDonald's",
        "opening_hours": "24/7",
        "takeaway": "yes"
      }
    },
    {
      "type": "node",
      "id": 522277686,
      "lat": -35.2502976,
      "lon": 149.1368724,
      "tags": {
        "amenity": "restaurant",
        "name": "Ruby Chinese"
      }
    },
    {
      "type": "node",
      "id": 522278271,
      "lat": -35.250072,
      "lon": 149.136484,
      "tags": {
        "amenity": "restaurant",
        "check_date": "2025-03-17",
        "name": "Taj Agra Indian"
      }
    },
    {
      "type": "node",
      "id": 522278272,
      "lat": -35.2506307,
      "lon": 149.1368212,
      "tags": {
        "amenity": "restaurant",
        "name": "Tak Kee Roast Inn"
      }
    },
    {
      "type": "node",
      "id": 522278274,
      "lat": -35.2504057,
      "lon": 149.1368558,
      "tags": {
        "amenity": "restaurant",
        "name": "Yum Thai"
      }
    },
    {
      "type": "node",
      "id": 522278281,
      "lat": -35.2503558,
      "lon": 149.1368634,
      "tags": {
        "amenity": "restaurant",
        "name": "Firestone Pizzeria"
      }
    },
    {
      "type": "node",
      "id": 522278283,
      "lat": -35.2499858,
      "lon": 149.1364973,
      "tags": {
        "amenity": "restaurant",
        "check_date": "2025-03-17",
        "diet:vegan": "yes",
        "diet:vegetarian": "only",
        "name": "Au Lac Gourmet Vegetarian"
      }
    },
    {
      "type": "node",
      "id": 522278284,
      "lat": -35.2502788,
      "lon": 149.136452,
      "tags": {
        "amenity": "restaurant",
        "check_date": "2025-03-17",
        "name": "Dickson Asian Noodle House"
      }
    },
    {
      "type": "node",
      "id": 540169414,
      "lat": -35.2381475,
      "lon": 149.084111,
      "tags": {
        "amenity": "cafe",
        "cuisine": "burger;italian_pizza;breakfast;pizza",
        "level": "0",
        "name": "Cafe Mizzuna",
        "opening_hours": "Mo-Fr 07:30-16:30"
      }
    },
    {
      "type": "node",
      "id": 559937321,
      "lat": -35.4039332,
      "lon": 149.0969009,
      "tags": {
        "amenity": "fast_food",
        "brand": "Subway",
        "brand:wikidata": "Q244457",
        "brand:wikipedia": "en:Subway (restaurant)",
        "cuisine": "sandwich",
        "name": "Subway",
        "takeaway": "yes",
        "wheelchair": "yes"
      }
    },
    {
      "type": "node",
      "id": 585124530,
      "lat": -35.281214,
      "lon": 149.124724,
      "tags": {
        "addr:housenumber": "5",
        "addr:street": "Farrell Place",
        "amenity": "cafe",
        "cuisine": "coffee_shop",
        "name": "Cafe Alibi",
        "opening_hours": "Mo-Fr 07:00-14:00",
        "outdoor_seating": "yes",
        "website": "https://cafealibi.com.au/"
      }
    },
    {
      "type": "node",
      "id": 602907492,
      "lat": -35.2895486,
      "lon": 149.1542264,
      "tags": {
        "amenity": "cafe",
        "name": "Hello Cafe",
        "opening_hours:signed": "no"
      }
    },
    {
      "type": "node",
      "id": 602907493,
      "lat": -35.2921217,
      "lon": 149.146642,
      "tags": {
        "addr:housenumber": "81",
        "addr:postcode": "2612",
        "addr:state": "ACT",
        "addr:street": "Constitution Avenue",
        "addr:suburb": "Campbell",
        "addr:unit": "4",
        "amenity": "restaurant",
        "cuisine": "asian",
        "name": "Lanterne Rooms",
        "phone": "+61 2 6249 6889",
        "website": "https://chairmangroup.com.au/lanterne-rooms/",
        "website:menu": "https://chairmangroup.com.au/lanterne-rooms/#dining-in"
      }
    },
    {
      "type": "node",
      "id": 607142257,
      "lat": -35.3405467,
      "lon": 149.0521198,
      "tags": {
        "amenity": "cafe",
        "name": "Chris's Patisserie & Bakehouse"
      }
    },
    {
      "type": "node",
      "id": 613279854,
      "lat": -35.170804,
      "lon": 149.0708112,
      "tags": {
        "addr:housenumber": "13",
        "addr:street": "Gladstone Street",
        "amenity": "restaurant",
        "name": "1882 Hall",
        "website": "https://1882hall.com.au/"
      }
    },
    {
      "type": "node",
      "id": 622829187,
      "lat": -35.3408902,
      "lon": 149.0521015,
      "tags": {
        "amenity": "restaurant",
        "name": "My's",
        "opening_hours": "Su-Th 11:00-22:00; Fr,Sa 11:00-23:00"
      }
    },
    {
      "type": "node",
      "id": 622829188,
      "lat": -35.341729,
      "lon": 149.0526973,
      "tags": {
        "amenity": "cafe",
        "name": "Sakeena's Cafe"
      }
    },
    {
      "type": "node",
      "id": 622836940,
      "lat": -35.3415205,
      "lon": 149.0517743,
      "tags": {
        "amenity": "restaurant",
        "name": "Maestral"
      }
    },
    {
      "type": "node",
      "id": 622836943,
      "lat": -35.3417826,
      "lon": 149.0521395,
      "tags": {
        "amenity": "restaurant",
        "name": "Masala Hut"
      }
    },
    {
      "type": "node",
      "id": 622836964,
      "lat": -35.3411365,
      "lon": 149.0530286,
      "tags": {
        "amenity": "cafe",
        "brand": "Michel's Patisserie",
        "brand:wikidata": "Q6836235",
        "cuisine": "coffee_shop",
        "name": "Michel's Patisserie",
        "takeaway": "yes"
      }
    },
    {
      "type": "node",
      "id": 622837012,
      "lat": -35.3413291,
      "lon": 149.0530395,
      "tags": {
        "amenity": "cafe",
        "name": "Guru"
      }
    },
    {
      "type": "node",
      "id": 624996170,
      "lat": -35.3415172,
      "lon": 149.051638,
      "tags": {
        "amenity": "restaurant",
        "name": "Chinatown"
      }
    },
    {
      "type": "node",
      "id": 632338510,
      "lat": -35.278465,
      "lon": 149.127996,
      "tags": {
        "amenity": "pub",
        "check_date": "2023-10-21",
        "name": "PJ's In The City"
      }
    },
    {
      "type": "node",
      "id": 634102818,
      "lat": -35.3616614,
      "lon": 149.0569308,
      "tags": {
        "amenity": "fast_food",
        "cuisine": "burger;fish_and_chips;pizza;sandwich",
        "name": "Fisher Takeaway",
        "opening_hours": "Mo-Sa 08:00-20:00"
      }
    },
    {
      "type": "node",
      "id": 654588066,
      "lat": -35.2519047,
      "lon": 149.1243834,
      "tags": {
        "amenity": "cafe",
        "name": "Tilley Devine's Cafe",
        "opening_hours": "Mo,Tu 07:30-16:30; We 07:30-20:30; Th,Fr 07:30-21:00; Sa 08:00-21:00; Su 08:00-15:00",
        "website": "https://tilleys.com.au/",
        "wikidata": "Q7802817"
      }
    },
    {
      "type": "node",
      "id": 667236372,
      "lat": -35.296665,
      "lon": 149.13004,
      "tags": {
        "addr:street": "Parkes Place West",
        "amenity": "cafe",
        "atm": "yes",
        "capacity": "200",
        "cuisine": "coffee_shop",
        "delivery": "no",
        "description": "Cafe at the National Library of Australia. Breakfast served till 11:00 Lunch also served",
        "name": "Bookplate",
        "opening_hours": "Mo-Th 08:30-18:00; Fr 08:30-16:00; Sa-Su 11:00-15:00",
        "website": "https://www.nla.gov.au/visit-us/bookplate-cafe",
        "wheelchair": "yes"
      }
    },
    {
      "type": "node",
      "id": 670169661,
      "lat": -35.2523082,
      "lon": 149.1246924,
      "tags": {
        "amenity": "fast_food",
        "cuisine": "pizza",
        "name": "Lyneham Pizza Bar",
        "opening_hours": "Su off"
      }
    },
    {
      "type": "node",
      "id": 672692017,
      "lat": -35.2642216,
      "lon": 149.1221353,
      "tags": {
        "amenity": "pub",
        "name": "Duxton",
        "website": "https://www.theduxton.com.au/"
      }
    },
    {
      "type": "node",
      "id": 679643043,
      "lat": -35.2839553,
      "lon": 149.1176627,
      "tags": {
        "amenity": "bar",
        "name": "Fellows Bar & Cafe",
        "wheelchair": "yes"
      }
    },
    {
      "type": "node",
      "id": 689769975,
      "lat": -35.2770821,
      "lon": 149.1253028,
      "tags": {
        "amenity": "restaurant",
        "cuisine": "malaysian",
        "name": "Makanan Dumpling House",
        "opening_hours": "Mo-Su 11:30-21:30"
      }
    },
    {
      "type": "node",
      "id": 714787209,
      "lat": -35.3096624,
      "lon": 149.1879872,
      "tags": {
        "amenity": "fast_food",
        "brand": "Subway",
        "brand:wikidata": "Q244457",
        "cuisine": "sandwich",
        "name": "Subway",
        "opening_hours": "Mo-Fr 09:00-16:00; Sa-Su off",
        "takeaway": "yes",
        "website": "https://www.subway.com/en-AU",
        "wheelchair": "yes"
      }
    },
    {
      "type": "node",
      "id": 792224145,
      "lat": -35.3427297,
      "lon": 149.1082569,
      "tags": {
        "amenity": "cafe",
        "name": "Little Garran"
      }
    },
    {
      "type": "node",
      "id": 796890763,
      "lat": -35.2499989,
      "lon": 149.1376471,
      "tags": {
        "addr:housenumber": "38",
        "addr:street": "Woolley Street",
        "addr:unit": "5",
        "amenity": "restaurant",
        "name": "Two Sisters Lao Thai"
      }
    },
    {
      "type": "node",
      "id": 852951854,
      "lat": -35.2440861,
      "lon": 149.1266199,
      "tags": {
        "amenity": "pub",
        "name": "Old Canberra Inn",
        "wheelchair": "limited",
        "wikidata": "Q7083587"
      }
    },
    {
      "type": "node",
      "id": 864633789,
      "lat": -35.2504727,
      "lon": 149.1392167,
      "tags": {
        "addr:housenumber": "24",
        "addr:street": "Dickson Place",
        "addr:unit": "3",
        "amenity": "cafe",
        "cuisine": "cafe;asian",
        "name": "Yu Cafe",
        "opening_hours": "Mo-Su 06:30-16:00",
        "opening_hours:signed": "no",
        "website": "https://instagram.com/yucafecanberra"
      }
    },
    {
      "type": "node",
      "id": 864633793,
      "lat": -35.2492876,
      "lon": 149.136259,
      "tags": {
        "amenity": "bar",
        "name": "Trinity"
      }
    },
    {
      "type": "node",
      "id": 864633804,
      "lat": -35.2505761,
      "lon": 149.1375392,
      "tags": {
        "amenity": "restaurant",
        "name": "El Dorado Steakhouse"
      }
    },
    {
      "type": "node",
      "id": 864633811,
      "lat": -35.249925,
      "lon": 149.1369756,
      "tags": {
        "addr:street": "Woolley Street",
        "amenity": "pub",
        "check_date": "2025-03-17",
        "name": "Dickson Taphouse",
        "opening_hours": "Mo-Su 11:30+",
        "website": "https://www.dicksontaphouse.com.au/"
      }
    },
    {
      "type": "node",
      "id": 871643353,
      "lat": -35.2375524,
      "lon": 149.0718166,
      "tags": {
        "addr:housenumber": "84",
        "addr:street": "Emu Bank",
        "addr:unit": "2",
        "amenity": "restaurant",
        "cuisine": "thai",
        "name": "Ayuttahaya",
        "website": "https://www.thaibelconnen.com/"
      }
    },
    {
      "type": "node",
      "id": 871643358,
      "lat": -35.2377153,
      "lon": 149.0718088,
      "tags": {
        "addr:housenumber": "84",
        "addr:street": "Emu Bank",
        "amenity": "restaurant",
        "check_date": "2023-10-20",
        "cuisine": "italian",
        "name": "Bella Vista",
        "website": "https://www.bellavistarestaurant.com.au/"
      }
    },
    {
      "type": "node",
      "id": 890228718,
      "lat": -35.2783473,
      "lon": 149.1325442,
      "tags": {
        "amenity": "fast_food",
        "brand": "Oporto",
        "brand:wikidata": "Q4412342",
        "brand:wikipedia": "en:Oporto (restaurant)",
        "cuisine": "burger;chicken",
        "name": "Oporto",
        "takeaway": "yes"
      }
    },
    {
      "type": "node",
      "id": 890228723,
      "lat": -35.2778133,
      "lon": 149.1330167,
      "tags": {
        "addr:housenumber": "125",
        "addr:street": "Bunda Street",
        "amenity": "restaurant",
        "brand": "Nando's",
        "brand:wikidata": "Q3472954",
        "brand:wikipedia": "en:Nando's",
        "cuisine": "chicken;portuguese",
        "diet:vegetarian": "yes",
        "level": "0",
        "name": "Nando's",
        "opening_hours": "Mo-Su 11:00-22:00",
        "smoking": "no",
        "takeaway": "yes",
        "website": "https://www.nandos.com.au/restaurants/act/canberra-centre",
        "wheelchair": "yes"
      }
    },
    {
      "type": "node",
      "id": 890407303,
      "lat": -35.3424233,
      "lon": 149.3776482,
      "tags": {
        "amenity": "cafe",
        "name": "cafe"
      }
    },
    {
      "type": "node",
      "id": 928132744,
      "lat": -35.2360851,
      "lon": 149.0698005,
      "tags": {
        "amenity": "restaurant",
        "check_date": "2024-06-09",
        "cuisine": "noodle",
        "name": "Xian Famous Noodles"
      }
    },
    {
      "type": "node",
      "id": 939124894,
      "lat": -35.2802565,
      "lon": 149.1262748,
      "tags": {
        "amenity": "restaurant",
        "amenity_1": "bar",
        "cuisine": "greek",
        "name": "Alia Bar",
        "opening_hours": "Tu-We 17:30-22:00; Th-Sa 11:30-15:30,17:30-23:00",
        "phone": "+61 434 588 443",
        "website": "https://www.aliabar.com.au/"
      }
    },
    {
      "type": "node",
      "id": 954674302,
      "lat": -35.2784834,
      "lon": 149.1282946,
      "tags": {
        "amenity": "restaurant",
        "cuisine": "italian",
        "name": "Briscola"
      }
    },
    {
      "type": "node",
      "id": 954674305,
      "lat": -35.2784703,
      "lon": 149.1281444,
      "tags": {
        "amenity": "cafe",
        "internet_access": "no",
        "name": "The Blue Olive",
        "opening_hours": "Mo-Fr 07:00-15:00",
        "outdoor_seating": "yes",
        "smoking": "no"
      }
    },
    {
      "type": "node",
      "id": 954674310,
      "lat": -35.2785535,
      "lon": 149.1288257,
      "tags": {
        "amenity": "restaurant",
        "cuisine": "vietnamese",
        "name": "Bistro Nguyen's",
        "opening_hours": "Mo-Su 11:30-14:30, 17:30-21:30"
      }
    },
    {
      "type": "node",
      "id": 954674315,
      "lat": -35.2781768,
      "lon": 149.1287291,
      "tags": {
        "air_conditioning": "yes",
        "amenity": "restaurant",
        "name": "The Kathmandu Mo:Mo House",
        "opening_hours": "Su-Th 12:00-21:30; Fr,Sa 12:00-22:00",
        "smoking": "no",
        "wheelchair": "yes"
      }
    },
    {
      "type": "node",
      "id": 954684027,
      "lat": -35.2787024,
      "lon": 149.1303813,
      "tags": {
        "amenity": "bar",
        "name": "One22"
      }
    },
    {
      "type": "node",
      "id": 954684039,
      "lat": -35.2779447,
      "lon": 149.1289115,
      "tags": {
        "amenity": "bar",
        "name": "White Rabbit"
      }
    },
    {
      "type": "node",
      "id": 957240539,
      "lat": -35.2790414,
      "lon": 149.1278837,
      "tags": {
        "amenity": "restaurant",
        "cuisine": "indian",
        "description": "Nepalese and Indian",
        "name": "Kathmandu Mo:Mo House",
        "opening_hours": "Mo-Sa 12:00-14:30, 17:00-21:30",
        "phone": "+61 2 6181 9625"
      }
    },
    {
      "type": "node",
      "id": 957240541,
      "lat": -35.2793173,
      "lon": 149.1280178,
      "tags": {
        "amenity": "restaurant",
        "name": "The Charcoal Restaurant"
      }
    },
    {
      "type": "node",
      "id": 962969076,
      "lat": -35.3130224,
      "lon": 149.1307289,
      "tags": {
        "addr:housenumber": "25",
        "addr:street": "National Circuit",
        "amenity": "cafe",
        "name": "Brew and Brew",
        "website": "https://thebrewandbrew.com.au/"
      }
    },
    {
      "type": "node",
      "id": 975358576,
      "lat": -35.1840984,
      "lon": 149.1323804,
      "tags": {
        "alt_name": "Kentucky Fried Chicken",
        "amenity": "fast_food",
        "brand": "KFC",
        "brand:wikidata": "Q524757",
        "brand:wikipedia": "en:KFC",
        "cuisine": "chicken",
        "name": "KFC",
        "takeaway": "yes",
        "website": "https://www.kfc.com.au/"
      }
    },
    {
      "type": "node",
      "id": 975359413,
      "lat": -35.1840166,
      "lon": 149.1316608,
      "tags": {
        "amenity": "fast_food",
        "brand": "Domino's",
        "brand:wikidata": "Q839466",
        "brand:wikipedia": "en:Domino's Pizza",
        "cuisine": "pizza",
        "name": "Domino's",
        "takeaway": "yes",
        "website": "https://www.dominos.com.au/"
      }
    },
    {
      "type": "node",
      "id": 975359673,
      "lat": -35.1839493,
      "lon": 149.1312327,
      "tags": {
        "amenity": "restaurant",
        "brand": "Pizza Hut",
        "brand:wikidata": "Q191615",
        "cuisine": "pizza",
        "name": "Pizza Hut",
        "website": "https://www.pizzahut.com.au/",
        "wheelchair": "yes"
      }
    },
    {
      "type": "node",
      "id": 975361394,
      "lat": -35.183451,
      "lon": 149.1267637,
      "tags": {
        "amenity": "fast_food",
        "brand": "Hungry Jack's",
        "brand:wikidata": "Q3036373",
        "brand:wikipedia": "en:Hungry Jack's",
        "cuisine": "burger",
        "name": "Hungry Jack's",
        "takeaway": "yes",
        "website": "https://www.hungryjacks.com.au/"
      }
    },
    {
      "type": "node",
      "id": 978010476,
      "lat": -35.2785521,
      "lon": 149.1238486,
      "tags": {
        "amenity": "cafe",
        "name": "As You Like It",
        "opening_hours": "Mo-Fr 07:00-16:30"
      }
    },
    {
      "type": "node",
      "id": 978015409,
      "lat": -35.2814139,
      "lon": 149.1219657,
      "tags": {
        "addr:housenumber": "105",
        "addr:street": "Ellery Crescent",
        "amenity": "cafe",
        "name": "Savoir French",
        "opening_hours": "Mo-Fr 08:00-15:30",
        "outdoor_seating": "yes",
        "website": "https://savoirfrench.com.au/",
        "wheelchair": "yes"
      }
    },
    {
      "type": "node",
      "id": 978025917,
      "lat": -35.2806476,
      "lon": 149.1233534,
      "tags": {
        "amenity": "cafe",
        "name": "Biginelli Espresso"
      }
    },
    {
      "type": "node",
      "id": 978060176,
      "lat": -35.2761892,
      "lon": 149.1209513,
      "tags": {
        "amenity": "cafe",
        "name": "Tasa Coffee House"
      }
    },
    {
      "type": "node",
      "id": 978074861,
      "lat": -35.2524009,
      "lon": 149.1250022,
      "tags": {
        "name": "Bakehouse",
        "opening_hours": "Mo-Fr 06:00-16:30; Sa 06:00-15:30; Su 07:30-14:30",
        "shop": "bakery"
      }
    },
    {
      "type": "node",
      "id": 978077878,
      "lat": -35.2523189,
      "lon": 149.1250451,
      "tags": {
        "amenity": "cafe",
        "check_date": "2026-06-02",
        "cuisine": "coffee_shop;vietnamese",
        "internet_access": "no",
        "name": "Chimida Coffee Bar Bistro",
        "opening_hours": "06:00-20:00; PH off",
        "payment:cash": "yes",
        "payment:credit_cards": "yes",
        "payment:debit_cards": "yes"
      }
    },
    {
      "type": "node",
      "id": 978077879,
      "lat": -35.2523851,
      "lon": 149.1248992,
      "tags": {
        "amenity": "fast_food",
        "cuisine": "turkish",
        "name": "Lyneham Pide Hut",
        "opening_hours": "Tu-Su 10:00-20:00"
      }
    },
    {
      "type": "node",
      "id": 988550575,
      "lat": -35.2256297,
      "lon": 149.0547014,
      "tags": {
        "addr:housenumber": "37",
        "addr:street": "Kesteven Street",
        "addr:unit": "3",
        "amenity": "restaurant",
        "check_date:opening_hours": "2024-06-13",
        "cuisine": "indian",
        "name": "Indian Pantry",
        "opening_hours": "Mo-Su 17:00-18:00+",
        "website": "https://indianpantryonline.com.au/"
      }
    },
    {
      "type": "node",
      "id": 988560590,
      "lat": -35.2242574,
      "lon": 149.1115957,
      "tags": {
        "amenity": "pub",
        "name": "Kaleen Bar and Bistro"
      }
    },
    {
      "type": "node",
      "id": 1003358598,
      "lat": -35.2531314,
      "lon": 149.0713027,
      "tags": {
        "amenity": "cafe",
        "name": "Ricardo's Cafe",
        "opening_hours": "Mo-Su 07:30-16:00; PH 07:30-15:30",
        "outdoor_seating": "yes",
        "phone": "+61 2 6253 3296",
        "website": "https://ricardoscafe.com.au/"
      }
    },
    {
      "type": "node",
      "id": 1003358600,
      "lat": -35.2530307,
      "lon": 149.0707304,
      "tags": {
        "amenity": "cafe",
        "name": "Coffee Guru",
        "phone": "+61 2 6162 4450",
        "website": "https://coffeeguru.com.au/locations/jamison/"
      }
    },
    {
      "type": "node",
      "id": 1092811652,
      "lat": -35.4175196,
      "lon": 149.0685519,
      "tags": {
        "amenity": "cafe",
        "name": "Canberra Cafe Greenway Cafe",
        "phone": "+61 2 5136 1517"
      }
    },
    {
      "type": "node",
      "id": 1115100382,
      "lat": -35.2783557,
      "lon": 149.1268722,
      "tags": {
        "amenity": "cafe",
        "name": "Harvest"
      }
    },
    {
      "type": "node",
      "id": 1118626971,
      "lat": -35.3422467,
      "lon": 149.0520224,
      "tags": {
        "amenity": "fast_food",
        "brand": "Crust",
        "brand:wikidata": "Q100792715",
        "cuisine": "pizza",
        "name": "Crust",
        "official_name": "Crust Gourmet Pizza Bar",
        "takeaway": "yes"
      }
    },
    {
      "type": "node",
      "id": 1118626980,
      "lat": -35.3415553,
      "lon": 149.0532525,
      "tags": {
        "amenity": "restaurant",
        "cuisine": "lao",
        "name": "Baitong Lao Food",
        "source": "local knowledge"
      }
    },
    {
      "type": "node",
      "id": 1118626986,
      "lat": -35.3405926,
      "lon": 149.052121,
      "tags": {
        "amenity": "cafe",
        "name": "Lava Espresso",
        "opening_hours": "Su 08:00-13:00; Mo-Fr 06:30-13:00; Sa 07:00-13:00"
      }
    },
    {
      "type": "node",
      "id": 1121392546,
      "lat": -35.3471089,
      "lon": 149.0363801,
      "tags": {
        "name": "J & R Bakery",
        "shop": "bakery"
      }
    },
    {
      "type": "node",
      "id": 1275648367,
      "lat": -35.380865,
      "lon": 149.2011271,
      "tags": {
        "brand": "Bakers Delight",
        "brand:wikidata": "Q4849261",
        "name": "Bakers Delight",
        "shop": "bakery"
      }
    },
    {
      "type": "node",
      "id": 1299580982,
      "lat": -35.2363063,
      "lon": 149.0608127,
      "tags": {
        "amenity": "fast_food",
        "check_date": "2023-06-03",
        "cuisine": "chicken",
        "drive_through": "no",
        "name": "Kingsley's Chicken"
      }
    },
    {
      "type": "node",
      "id": 1300396496,
      "lat": -35.278164,
      "lon": 149.1324852,
      "tags": {
        "amenity": "cafe",
        "indoor_seating": "yes",
        "name": "Oliver Brown",
        "outdoor_seating": "yes"
      }
    },
    {
      "type": "node",
      "id": 1307621258,
      "lat": -35.2415861,
      "lon": 149.0923785,
      "tags": {
        "amenity": "cafe",
        "cuisine": "coffee_shop",
        "name": "Bean Origin Bruce",
        "outdoor_seating": "no",
        "shop": "florist"
      }
    },
    {
      "type": "node",
      "id": 1326569192,
      "lat": -35.2377712,
      "lon": 149.0652104,
      "tags": {
        "addr:street": "Benjamin Way",
        "amenity": "fast_food",
        "brand": "McDonald's",
        "brand:wikidata": "Q38076",
        "brand:wikipedia": "en:McDonald's",
        "check_date": "2024-05-24",
        "cuisine": "burger",
        "level": "2",
        "level:ref": "3",
        "name": "McDonald's",
        "opening_hours": "Mo-Th 09:00-17:30; Fr 09:00-21:00; Sa 09:00-17:00; Su 10:00-16:00",
        "takeaway": "yes",
        "website": "https://www.mcdonalds.com.au/"
      }
    },
    {
      "type": "node",
      "id": 1326569198,
      "lat": -35.2379725,
      "lon": 149.0649257,
      "tags": {
        "addr:street": "Benjamin Way",
        "alt_name": "Kentucky Fried Chicken",
        "amenity": "fast_food",
        "brand": "KFC",
        "brand:wikidata": "Q524757",
        "brand:wikipedia": "en:KFC",
        "check_date": "2024-05-24",
        "cuisine": "chicken",
        "level": "2",
        "level:ref": "3",
        "name": "KFC",
        "opening_hours": "Mo-Th 09:00-17:30; Fr 09:00-21:00; Sa 09:00-17:00; Su 10:00-16:00",
        "takeaway": "yes",
        "website": "https://www.kfc.com.au/"
      }
    },
    {
      "type": "node",
      "id": 1326569209,
      "lat": -35.2377515,
      "lon": 149.0649354,
      "tags": {
        "addr:street": "Benjamin Way",
        "amenity": "fast_food",
        "brand": "Oporto",
        "brand:wikidata": "Q4412342",
        "brand:wikipedia": "en:Oporto (restaurant)",
        "check_date": "2024-05-24",
        "cuisine": "burger;chicken",
        "level": "2",
        "level:ref": "3",
        "name": "Oporto",
        "opening_hours": "Mo-Th 09:00-17:30; Fr 09:00-21:00; Sa 09:00-17:00; Su 10:00-16:00",
        "takeaway": "yes",
        "website": "https://www.oporto.com.au/"
      }
    },
    {
      "type": "node",
      "id": 1329276216,
      "lat": -35.4572471,
      "lon": 149.0923672,
      "tags": {
        "addr:housenumber": "4",
        "addr:street": "Sidney Nolan Street",
        "addr:unit": "5",
        "amenity": "fast_food",
        "cuisine": "pizza;burger;sandwich",
        "drive_through": "no",
        "name": "Conder Takeaway",
        "opening_hours": "Mo-Su 08:00-20:00",
        "outdoor_seating": "no",
        "phone": "+61 2 6294 6818",
        "takeaway": "yes",
        "website": "https://www.lanyonmarketplacesc.com/conder-takeaway"
      }
    },
    {
      "type": "node",
      "id": 1332107615,
      "lat": -35.341232,
      "lon": 149.0530406,
      "tags": {
        "brand": "Bakers Delight",
        "brand:wikidata": "Q4849261",
        "name": "Bakers Delight",
        "shop": "bakery"
      }
    },
    {
      "type": "node",
      "id": 1336046012,
      "lat": -35.3329182,
      "lon": 149.153794,
      "tags": {
        "addr:housenumber": "59",
        "addr:postcode": "2604",
        "addr:state": "ACT",
        "addr:street": "Boolimba Crescent",
        "addr:suburb": "Narrabundah",
        "amenity": "restaurant",
        "cuisine": "indonesian",
        "name": "Kita",
        "phone": "+61 400 577 089",
        "website": "https://www.kitakafe.com.au/"
      }
    },
    {
      "type": "node",
      "id": 1339193862,
      "lat": -35.380949,
      "lon": 149.201018,
      "tags": {
        "amenity": "fast_food",
        "name": "Jerra Takeaway",
        "opening_hours": "Mo-We 07:00-20:00; Th-Fr 07:00-21:00; Sa 08:00-20:00; Su 09:00-20:00"
      }
    },
    {
      "type": "node",
      "id": 1339196088,
      "lat": -35.380711,
      "lon": 149.201538,
      "tags": {
        "amenity": "restaurant",
        "cuisine": "asian",
        "name": "the Jerra Fine Asian Cuisine"
      }
    },
    {
      "type": "node",
      "id": 1339203322,
      "lat": -35.381262,
      "lon": 149.200556,
      "tags": {
        "amenity": "pub",
        "name": "Jerrabomberra Hotel"
      }
    },
    {
      "type": "node",
      "id": 1339441091,
      "lat": -35.3859688,
      "lon": 149.2005051,
      "tags": {
        "amenity": "fast_food",
        "name": "Suppeto Collective Cafe"
      }
    },
    {
      "type": "node",
      "id": 1364000490,
      "lat": -35.2978151,
      "lon": 149.1437142,
      "tags": {
        "amenity": "cafe",
        "name": "The Griff Coffee Bar",
        "opening_hours": "Mo-Fr 08:00-13:00; Sa-Su 08:00-14:00",
        "outdoor_seating": "no",
        "phone": "+61 477 643 832"
      }
    },
    {
      "type": "node",
      "id": 1406592737,
      "lat": -35.3650107,
      "lon": 149.0940511,
      "tags": {
        "amenity": "fast_food",
        "branch": "Mawson",
        "brand": "Domino's",
        "brand:wikidata": "Q839466",
        "check_date": "2024-08-02",
        "cuisine": "pizza",
        "name": "Domino's",
        "opening_hours": "Su-Th 11:00-23:00; Fr,Sa 11:00-24:00",
        "operator": "Domino's",
        "takeaway": "yes"
      }
    },
    {
      "type": "node",
      "id": 1406592739,
      "lat": -35.3651028,
      "lon": 149.0940531,
      "tags": {
        "amenity": "restaurant",
        "cuisine": "chinese",
        "name": "Gold Dragon Chinese Restaurant",
        "opening_hours": "Su-Th 17:00-21:00; Fr,Sa 17:00-21:30"
      }
    },
    {
      "type": "node",
      "id": 1406744080,
      "lat": -35.3753328,
      "lon": 149.1015939,
      "tags": {
        "amenity": "fast_food",
        "cuisine": "burger",
        "name": "Farrer Take Away & Cafe"
      }
    },
    {
      "type": "node",
      "id": 1406744093,
      "lat": -35.3753766,
      "lon": 149.1016331,
      "tags": {
        "amenity": "restaurant",
        "cuisine": "regional",
        "name": "The Ridge Restaurant"
      }
    },
    {
      "type": "node",
      "id": 1406744095,
      "lat": -35.3756338,
      "lon": 149.1017134,
      "tags": {
        "amenity": "cafe",
        "contact:facebook": "https://www.facebook.com/foxandbowcafe/",
        "name": "Fox & Bow",
        "website": "https://www.foxandbow.com.au/"
      }
    },
    {
      "type": "node",
      "id": 1430648998,
      "lat": -35.3654888,
      "lon": 149.0937247,
      "tags": {
        "check_date": "2024-08-02",
        "name": "Italian continental bakery",
        "opening_hours": "Tu-Fr 07:30-16:30; Sa,Su 08:00-15:30",
        "shop": "bakery"
      }
    },
    {
      "type": "node",
      "id": 1438088893,
      "lat": -35.4022923,
      "lon": 148.9831404,
      "tags": {
        "amenity": "cafe",
        "name": "Moon Rock Café"
      }
    },
    {
      "type": "node",
      "id": 1484213638,
      "lat": -35.3466109,
      "lon": 149.0868955,
      "tags": {
        "amenity": "food_court",
        "internet_access": "yes",
        "level": "1",
        "name": "Westfield Woden Food Court",
        "operator": "Westfield"
      }
    },
    {
      "type": "node",
      "id": 1509395021,
      "lat": -35.236731,
      "lon": 149.0711756,
      "tags": {
        "addr:housenumber": "102",
        "addr:street": "Emu Bank",
        "amenity": "restaurant",
        "name": "Indian Dining Club",
        "was:name": "Thai Chiang Rai",
        "was:website": "https://thaichiangrai.com/",
        "website": "https://indiandiningclub.com.au/"
      }
    },
    {
      "type": "node",
      "id": 1509404458,
      "lat": -35.2370844,
      "lon": 149.0714713,
      "tags": {
        "addr:housenumber": "102",
        "addr:street": "Emu Bank",
        "addr:unit": "6",
        "amenity": "restaurant",
        "check_date": "2024-06-05",
        "cuisine": "noodle",
        "name": "Wok It Up"
      }
    },
    {
      "type": "node",
      "id": 1509458190,
      "lat": -35.2261337,
      "lon": 149.0543631,
      "tags": {
        "addr:housenumber": "20",
        "addr:street": "Kesteven Street",
        "addr:unit": "4",
        "amenity": "fast_food",
        "check_date": "2023-10-31",
        "cuisine": "fish_and_chips;burger",
        "drive_through": "no",
        "name": "Florey Take-Away",
        "opening_hours": "PH,Mo-Su 11:00-19:30",
        "payment:cash": "yes",
        "payment:mastercard": "yes",
        "payment:visa": "yes",
        "wheelchair": "yes"
      }
    },
    {
      "type": "node",
      "id": 1509459856,
      "lat": -35.2396295,
      "lon": 149.0525437,
      "tags": {
        "addr:housenumber": "2-4",
        "addr:street": "Page Place",
        "amenity": "restaurant",
        "check_date": "2023-10-29",
        "contact:facebook": "https://www.facebook.com/Vietnamvillageinn/",
        "cuisine": "vietnamese",
        "name": "Vietnam Village Inn"
      }
    },
    {
      "type": "node",
      "id": 1509471856,
      "lat": -35.2359282,
      "lon": 149.0655324,
      "tags": {
        "addr:housenumber": "1",
        "addr:street": "Beissel Street",
        "addr:unit": "63",
        "amenity": "cafe",
        "check_date": "2023-10-31",
        "contact:facebook": "https://facebook.com/stellasbythelake",
        "cuisine": "coffee_shop;burger",
        "internet_access": "no",
        "level": "0",
        "name": "Stella's on the lake",
        "opening_hours": "Mo-Fr 07:00-14:00; Sa,Su 08:00-14:00",
        "outdoor_seating": "yes",
        "payment:cash": "yes",
        "payment:mastercard": "yes",
        "payment:visa": "yes",
        "start_date": "2020-09-21",
        "toilets": "yes",
        "wheelchair": "yes"
      }
    },
    {
      "type": "node",
      "id": 1511206111,
      "lat": -35.2369905,
      "lon": 149.0713813,
      "tags": {
        "addr:housenumber": "102",
        "addr:street": "Emu Bank",
        "addr:unit": "5",
        "amenity": "fast_food",
        "brand": "Zambrero",
        "brand:wikidata": "Q18636431",
        "check_date": "2024-06-05",
        "cuisine": "mexican",
        "drive_through": "no",
        "name": "Zambrero",
        "outdoor_seating": "yes",
        "smoking": "no",
        "takeaway": "yes",
        "website": "https://www.zambrero.com.au/locations/belconnen"
      }
    },
    {
      "type": "node",
      "id": 1511206116,
      "lat": -35.2413071,
      "lon": 149.0670327,
      "tags": {
        "amenity": "cafe",
        "cuisine": "coffee_shop",
        "name": "Orange Bean"
      }
    },
    {
      "type": "node",
      "id": 1511206120,
      "lat": -35.2386983,
      "lon": 149.0687367,
      "tags": {
        "amenity": "cafe",
        "check_date:opening_hours": "2024-06-11",
        "cuisine": "regional",
        "name": "Parkview Cafe",
        "opening_hours:signed": "no"
      }
    },
    {
      "type": "node",
      "id": 1511206121,
      "lat": -35.2404639,
      "lon": 149.0679266,
      "tags": {
        "amenity": "cafe",
        "check_date": "2023-10-29",
        "cuisine": "coffee_shop",
        "name": "Calypso Cafe"
      }
    },
    {
      "type": "node",
      "id": 1511206122,
      "lat": -35.2382963,
      "lon": 149.071687,
      "tags": {
        "amenity": "fast_food",
        "brand": "Crust",
        "brand:wikidata": "Q100792715",
        "check_date": "2024-05-24",
        "cuisine": "pizza",
        "name": "Crust",
        "official_name": "Crust Gourmet Pizza Bar",
        "takeaway": "yes",
        "website": "https://www.crust.com.au/stores/act/belconnen/"
      }
    },
    {
      "type": "node",
      "id": 1511270059,
      "lat": -35.2434068,
      "lon": 149.0436332,
      "tags": {
        "addr:housenumber": "78",
        "addr:street": "Hawker Place",
        "addr:unit": "4",
        "amenity": "restaurant",
        "check_date": "2023-10-27",
        "cuisine": "regional",
        "name": "Rocksalt",
        "website": "https://rocksaltcanberra.com.au/"
      }
    },
    {
      "type": "node",
      "id": 1512496547,
      "lat": -35.2402915,
      "lon": 149.0593793,
      "tags": {
        "amenity": "restaurant",
        "check_date": "2026-05-13",
        "cuisine": "burger",
        "name": "Chompy's",
        "website": "https://www.thebasementcanberra.com.au/menu/"
      }
    },
    {
      "type": "node",
      "id": 1512496554,
      "lat": -35.2403241,
      "lon": 149.0590931,
      "tags": {
        "addr:housenumber": "2",
        "addr:street": "Cohen Street",
        "amenity": "bar",
        "check_date": "2026-05-13",
        "name": "The Basement Canberra",
        "opening_hours": "Mo-We,Su 11:30-22:00; Th-Sa 11:30-02:00",
        "phone": "+61 2 6251 7630",
        "website": "https://www.thebasementcanberra.com.au"
      }
    },
    {
      "type": "node",
      "id": 1512496555,
      "lat": -35.23951,
      "lon": 149.0631528,
      "tags": {
        "amenity": "cafe",
        "check_date": "2023-10-22",
        "cuisine": "coffee_shop",
        "name": "Cafe 2617"
      }
    },
    {
      "type": "node",
      "id": 1513987925,
      "lat": -35.238206,
      "lon": 149.0666467,
      "tags": {
        "amenity": "cafe",
        "brand": "Gloria Jean's",
        "brand:wikidata": "Q2666365",
        "brand:wikipedia": "en:Gloria Jean's Coffees",
        "cuisine": "coffee_shop",
        "level": "2",
        "level:ref": "3",
        "name": "Gloria Jean's",
        "official_name": "Gloria Jean's Coffees",
        "takeaway": "yes"
      }
    },
    {
      "type": "node",
      "id": 1513987937,
      "lat": -35.2417839,
      "lon": 149.0630568,
      "tags": {
        "addr:housenumber": "38",
        "addr:street": "Weedon Close",
        "amenity": "restaurant",
        "cuisine": "indian",
        "name": "Sankalp",
        "website": "https://www.sankalp.com.au/Belconnen/"
      }
    },
    {
      "type": "node",
      "id": 1513987938,
      "lat": -35.2417399,
      "lon": 149.0632737,
      "tags": {
        "amenity": "restaurant",
        "contact:facebook": "https://facebook.com/C%C3%A2n-Th%C3%B4-131349530246936/",
        "cuisine": "vietnamese",
        "name": "Can Tho"
      }
    },
    {
      "type": "node",
      "id": 1516247933,
      "lat": -35.2513674,
      "lon": 149.1359638,
      "tags": {
        "amenity": "fast_food",
        "brand": "Domino's",
        "brand:wikidata": "Q839466",
        "brand:wikipedia": "en:Domino's Pizza",
        "check_date": "2025-03-17",
        "cuisine": "pizza",
        "name": "Domino's",
        "takeaway": "yes"
      }
    },
    {
      "type": "node",
      "id": 1516247938,
      "lat": -35.2510936,
      "lon": 149.1383778,
      "tags": {
        "amenity": "pub",
        "name": "Tradesmen's Union Club"
      }
    },
    {
      "type": "node",
      "id": 1516304872,
      "lat": -35.2495747,
      "lon": 149.1372216,
      "tags": {
        "amenity": "fast_food",
        "brand": "Subway",
        "brand:wikidata": "Q244457",
        "brand:wikipedia": "en:Subway (restaurant)",
        "check_date": "2025-03-17",
        "cuisine": "sandwich",
        "name": "Subway",
        "takeaway": "yes",
        "website": "https://www.subway.com/en-au/"
      }
    },
    {
      "type": "node",
      "id": 1516304873,
      "lat": -35.2495538,
      "lon": 149.1369279,
      "tags": {
        "amenity": "fast_food",
        "brand": "Oporto",
        "brand:wikidata": "Q4412342",
        "check_date": "2025-03-17",
        "cuisine": "burger;chicken",
        "name": "Oporto",
        "takeaway": "yes"
      }
    },
    {
      "type": "node",
      "id": 1516306089,
      "lat": -35.2505215,
      "lon": 149.1376024,
      "tags": {
        "addr:housenumber": "5",
        "addr:street": "Badham Street",
        "amenity": "restaurant",
        "cuisine": "vietnamese",
        "name": "Pho Phu Quoc"
      }
    },
    {
      "type": "node",
      "id": 1517045685,
      "lat": -35.2831569,
      "lon": 149.1213146,
      "tags": {
        "amenity": "cafe",
        "name": "NFSA Cafe"
      }
    },
    {
      "type": "node",
      "id": 1518611963,
      "lat": -35.2780661,
      "lon": 149.1258935,
      "tags": {
        "amenity": "cafe",
        "name": "Coffee Guru",
        "name:fa": "کافه گورو"
      }
    },
    {
      "type": "node",
      "id": 1518616148,
      "lat": -35.2767693,
      "lon": 149.1278575,
      "tags": {
        "addr:housenumber": "11",
        "addr:street": "Moore Street",
        "amenity": "cafe",
        "name": "Cafe Ristretto",
        "phone": "+61 493 115 328"
      }
    },
    {
      "type": "node",
      "id": 1529355181,
      "lat": -35.300584,
      "lon": 149.1626476,
      "tags": {
        "amenity": "cafe",
        "name": "RMC Cafe Duntroon"
      }
    },
    {
      "type": "node",
      "id": 1602685881,
      "lat": -35.3531083,
      "lon": 149.2338569,
      "tags": {
        "amenity": "pub",
        "name": "Royal Hotel",
        "toilets:wheelchair": "yes",
        "wheelchair": "yes"
      }
    },
    {
      "type": "node",
      "id": 1623585013,
      "lat": -35.2790615,
      "lon": 149.1243093,
      "tags": {
        "amenity": "cafe",
        "name": "Stonewall Cafe"
      }
    },
    {
      "type": "node",
      "id": 1669802205,
      "lat": -35.3393483,
      "lon": 149.0766138,
      "tags": {
        "addr:housenumber": "9",
        "addr:postcode": "2606",
        "addr:state": "ACT",
        "addr:street": "Lyons Place",
        "addr:suburb": "Lyons",
        "addr:unit": "7",
        "amenity": "cafe",
        "check_date": "2025-04-11",
        "diet:vegan": "yes",
        "diet:vegetarian": "only",
        "internet_access": "wlan",
        "internet_access:fee": "customers",
        "name": "Stand By Me",
        "opening_hours": "Tu-Su 08:00-15:00",
        "outdoor_seating": "yes",
        "payment:cash": "yes",
        "payment:credit_cards": "yes",
        "payment:debit_cards": "yes",
        "shop": "yes",
        "website": "https://standbymecafe.com.au",
        "wheelchair": "yes"
      }
    },
    {
      "type": "node",
      "id": 1681468449,
      "lat": -35.4039317,
      "lon": 149.0980116,
      "tags": {
        "addr:housenumber": "28",
        "addr:street": "Denigan Street",
        "amenity": "restaurant",
        "cuisine": "chinese",
        "name": "Gary's Kitchen",
        "opening_hours": "Tu-Su 11:30-21:30",
        "source": "survey"
      }
    },
    {
      "type": "node",
      "id": 1730470727,
      "lat": -35.2385462,
      "lon": 149.0847454,
      "tags": {
        "amenity": "fast_food",
        "cuisine": "coffee_shop",
        "name": "melt deli"
      }
    },
    {
      "type": "node",
      "id": 1730470740,
      "lat": -35.2396152,
      "lon": 149.0807918,
      "tags": {
        "amenity": "fast_food",
        "brand": "Domino's",
        "brand:wikidata": "Q839466",
        "cuisine": "pizza",
        "delivery": "yes",
        "name": "Domino's",
        "takeaway": "only",
        "website": "https://www.dominos.com.au/store/act-bruce-98600"
      }
    },
    {
      "type": "node",
      "id": 1772626915,
      "lat": -35.2757822,
      "lon": 149.1251676,
      "tags": {
        "addr:housenumber": "3",
        "addr:street": "Kingsley Street",
        "amenity": "restaurant",
        "check_date": "2026-04-20",
        "check_date:opening_hours": "2026-04-20",
        "contact:facebook": "cbrfoodcoop",
        "contact:instagram": "cbrfoodcoop",
        "name": "The Food Co-op",
        "opening_hours": "Mo-Sa 12:00-14:00",
        "phone": "+61 2 6230 7505",
        "website": "https://cbrfoodcoop.org.au"
      }
    },
    {
      "type": "node",
      "id": 1772626917,
      "lat": -35.2839781,
      "lon": 149.1177873,
      "tags": {
        "amenity": "restaurant",
        "name": "Boffins"
      }
    },
    {
      "type": "node",
      "id": 1772626925,
      "lat": -35.2793252,
      "lon": 149.1281966,
      "tags": {
        "amenity": "restaurant",
        "cuisine": "asian",
        "name": "Lemon Grass Thai"
      }
    },
    {
      "type": "node",
      "id": 1785979531,
      "lat": -35.1929506,
      "lon": 149.0435904,
      "tags": {
        "addr:housenumber": "6",
        "addr:street": "Daley Crescent",
        "amenity": "cafe",
        "name": "Fraser Cafe"
      }
    },
    {
      "type": "node",
      "id": 1792668282,
      "lat": -35.325156,
      "lon": 149.0829408,
      "tags": {
        "amenity": "cafe",
        "name": "Red Brick Espresso"
      }
    },
    {
      "type": "node",
      "id": 1796609907,
      "lat": -35.3617231,
      "lon": 149.0568795,
      "tags": {
        "addr:street": "Fisher Square",
        "amenity": "restaurant",
        "cuisine": "vietnamese",
        "name": "Fisher Vietnamese Takeaway",
        "opening_hours": "Tu-Su 17:00-21:00; Th-Sa 17:00-21:30",
        "source": "local_knowledge",
        "takeaway": "yes"
      }
    },
    {
      "type": "node",
      "id": 1800279048,
      "lat": -35.3527961,
      "lon": 149.0594705,
      "tags": {
        "addr:street": "Waramanga Place",
        "amenity": "restaurant",
        "cuisine": "malaysian",
        "name": "Satay Kitchen",
        "source": "local_knowledge",
        "takeaway": "yes"
      }
    },
    {
      "type": "node",
      "id": 1800290406,
      "lat": -35.352609,
      "lon": 149.0596468,
      "tags": {
        "amenity": "cafe",
        "name": "Vietnamese Bakery",
        "shop": "bakery"
      }
    },
    {
      "type": "node",
      "id": 1806885527,
      "lat": -35.3624731,
      "lon": 149.0816951,
      "tags": {
        "amenity": "restaurant",
        "cuisine": "chinese",
        "name": "Saigon Restaurant",
        "source": "local_knowledge"
      }
    },
    {
      "type": "node",
      "id": 1811922318,
      "lat": -35.3144887,
      "lon": 149.1077428,
      "tags": {
        "amenity": "cafe",
        "name": "Double Shot Cafe-Expresso Bar"
      }
    },
    {
      "type": "node",
      "id": 1811934278,
      "lat": -35.3146599,
      "lon": 149.1079636,
      "tags": {
        "amenity": "restaurant",
        "name": "Cape Cod"
      }
    },
    {
      "type": "node",
      "id": 1811937113,
      "lat": -35.3147923,
      "lon": 149.1080317,
      "tags": {
        "amenity": "cafe",
        "name": "Cafe D’lish"
      }
    },
    {
      "type": "node",
      "id": 1814424667,
      "lat": -35.3447354,
      "lon": 149.0842539,
      "tags": {
        "amenity": "cafe",
        "name": "Cafe Ink"
      }
    },
    {
      "type": "node",
      "id": 1814424668,
      "lat": -35.346977,
      "lon": 149.0848235,
      "tags": {
        "amenity": "fast_food",
        "brand": "El Jannah",
        "brand:wikidata": "Q96377069",
        "cuisine": "chicken",
        "name": "El Jannah",
        "takeaway": "yes"
      }
    },
    {
      "type": "node",
      "id": 1814424680,
      "lat": -35.3470923,
      "lon": 149.0848482,
      "tags": {
        "amenity": "restaurant",
        "diet:vegan": "yes",
        "name": "Au Lac Woden Vegan Cuisine",
        "opening_hours": "Mo-Su 11:30-14:30,17:00-21:45",
        "website": "https://www.aulacveganwoden.com/"
      }
    },
    {
      "type": "node",
      "id": 1814424684,
      "lat": -35.3414328,
      "lon": 149.0846763,
      "tags": {
        "amenity": "cafe",
        "name": "Gizmos The Sirius Cafe"
      }
    },
    {
      "type": "node",
      "id": 1814424691,
      "lat": -35.3437071,
      "lon": 149.0854721,
      "tags": {
        "amenity": "cafe",
        "name": "Metro Cafe"
      }
    },
    {
      "type": "node",
      "id": 1814424693,
      "lat": -35.347203,
      "lon": 149.0848741,
      "tags": {
        "amenity": "restaurant",
        "cuisine": "hotpot",
        "name": "Zhangliang Malatang",
        "website": "https://www.zlhotpot.com.au/home"
      }
    },
    {
      "type": "node",
      "id": 1814424695,
      "lat": -35.3467748,
      "lon": 149.0847757,
      "tags": {
        "amenity": "restaurant",
        "cuisine": "chinese;dumplings",
        "name": "Chinese Kitchen Dumpling House",
        "website": "https://chinesekitchencanberra.com.au/"
      }
    },
    {
      "type": "node",
      "id": 1814424698,
      "lat": -35.346231,
      "lon": 149.0844743,
      "tags": {
        "amenity": "restaurant",
        "check_date": "2026-04-12",
        "check_date:opening_hours": "2024-09-08",
        "cuisine": "turkish",
        "level": "1",
        "level:ref": "2",
        "name": "Turkish Pide House Woden",
        "name:en": "Turkish Pide House Woden",
        "opening_hours": "Mo-Su 10:30-21:00",
        "opening_hours:signed": "no",
        "payment:cash": "yes",
        "payment:credit_cards": "yes",
        "payment:debit_cards": "yes",
        "wheelchair": "yes"
      }
    },
    {
      "type": "node",
      "id": 1814424719,
      "lat": -35.3468726,
      "lon": 149.0847981,
      "tags": {
        "amenity": "restaurant",
        "cuisine": "greek",
        "name": "Zeus Street Kitchen"
      }
    },
    {
      "type": "node",
      "id": 1814424723,
      "lat": -35.3449335,
      "lon": 149.0848754,
      "tags": {
        "amenity": "cafe",
        "name": "Viizar Cafe",
        "note": "need to check if a business is still there, last touched 13 years ago"
      }
    },
    {
      "type": "node",
      "id": 1814532795,
      "lat": -35.3410129,
      "lon": 149.0845611,
      "tags": {
        "amenity": "cafe",
        "name": "Sirius Cafe",
        "opening_hours": "Mo-Fr 07:30-16:30",
        "website": "http://www.siriuscafe.com.au/"
      }
    },
    {
      "type": "node",
      "id": 1822423107,
      "lat": -35.3507,
      "lon": 149.08686,
      "tags": {
        "amenity": "fast_food",
        "name": "Botany Café"
      }
    },
    {
      "type": "node",
      "id": 1831720206,
      "lat": -35.2383769,
      "lon": 149.0646579,
      "tags": {
        "addr:street": "Benjamin Way",
        "brand": "Breadtop",
        "brand:wikidata": "Q4959217",
        "brand:wikipedia": "en:Breadtop",
        "cuisine": "chinese",
        "level": "1",
        "level:ref": "2",
        "name": "Breadtop",
        "opening_hours": "Mo-Th 09:00-17:30; Fr 09:00-21:00; Sa 09:00-17:00; Su 10:00-16:00",
        "shop": "bakery"
      }
    },
    {
      "type": "node",
      "id": 1831721527,
      "lat": -35.2787972,
      "lon": 149.1308043,
      "tags": {
        "amenity": "fast_food",
        "brand": "McDonald's",
        "brand:wikidata": "Q38076",
        "brand:wikipedia": "en:McDonald's",
        "cuisine": "burger",
        "name": "McDonald's",
        "takeaway": "yes"
      }
    },
    {
      "type": "node",
      "id": 1831741985,
      "lat": -35.3087282,
      "lon": 149.1342375,
      "tags": {
        "amenity": "cafe",
        "name": "The Daily Grind"
      }
    },
    {
      "type": "node",
      "id": 1831741989,
      "lat": -35.3096419,
      "lon": 149.1341249,
      "tags": {
        "amenity": "cafe",
        "name": "Lachlan Cafe"
      }
    },
    {
      "type": "node",
      "id": 1842461425,
      "lat": -35.2484272,
      "lon": 149.1629158,
      "tags": {
        "addr:housename": "Siam Twist",
        "addr:housenumber": "5",
        "addr:street": "Hackett Place",
        "addr:unit": "1",
        "amenity": "restaurant",
        "cuisine": "thai",
        "internet_access": "wlan",
        "name": "Siam Twist Restaurant & Cafe"
      }
    },
    {
      "type": "node",
      "id": 1842583837,
      "lat": -35.1837586,
      "lon": 149.1317199,
      "tags": {
        "amenity": "fast_food",
        "brand": "Pizza Capers",
        "brand:wikidata": "Q17021875",
        "cuisine": "pizza",
        "name": "Pizza Capers",
        "opening_hours": "Su-Th 11:00-22:00; Fr,Sa 11:00-22:30",
        "takeaway": "yes"
      }
    },
    {
      "type": "node",
      "id": 1928632071,
      "lat": -35.1851272,
      "lon": 149.1338351,
      "tags": {
        "brand": "Bakers Delight",
        "brand:wikidata": "Q4849261",
        "brand:wikipedia": "en:Bakers Delight",
        "name": "Bakers Delight",
        "shop": "bakery"
      }
    },
    {
      "type": "node",
      "id": 1928632076,
      "lat": -35.183571,
      "lon": 149.1312495,
      "tags": {
        "amenity": "restaurant",
        "cuisine": "indian",
        "name": "Jay Bhavani Vadapav",
        "website": "https://jaybhavani.com.au/"
      }
    },
    {
      "type": "node",
      "id": 1928632078,
      "lat": -35.1837206,
      "lon": 149.1313215,
      "tags": {
        "amenity": "restaurant",
        "cuisine": "asian",
        "name": "Jasmine House"
      }
    },
    {
      "type": "node",
      "id": 1945593873,
      "lat": -35.2530161,
      "lon": 149.0891948,
      "tags": {
        "amenity": "cafe",
        "name": "Zouki Cafe",
        "source": "survey"
      }
    },
    {
      "type": "node",
      "id": 1968040728,
      "lat": -35.3417354,
      "lon": 149.0531552,
      "tags": {
        "amenity": "ice_cream",
        "name": "That Gelato Place"
      }
    },
    {
      "type": "node",
      "id": 1968043536,
      "lat": -35.3420804,
      "lon": 149.0524236,
      "tags": {
        "amenity": "fast_food",
        "brand": "Zambrero",
        "brand:wikidata": "Q18636431",
        "cuisine": "mexican",
        "name": "Zambrero",
        "phone": "+61 2 6287 4923",
        "takeaway": "yes"
      }
    },
    {
      "type": "node",
      "id": 1968045484,
      "lat": -35.3416756,
      "lon": 149.0521347,
      "tags": {
        "amenity": "restaurant",
        "name": "Orient Kitchen"
      }
    },
    {
      "type": "node",
      "id": 1968171506,
      "lat": -35.3422039,
      "lon": 149.052626,
      "tags": {
        "amenity": "restaurant",
        "cuisine": "thai",
        "name": "The Thai House"
      }
    },
    {
      "type": "node",
      "id": 1969351399,
      "lat": -35.3425586,
      "lon": 149.0849538,
      "tags": {
        "amenity": "cafe",
        "name": "Urban Bean",
        "opening_hours": "Mo-Th 07:00-16:00; Fr 07:00-15:30"
      }
    },
    {
      "type": "node",
      "id": 1969351983,
      "lat": -35.3422827,
      "lon": 149.0844734,
      "tags": {
        "amenity": "cafe",
        "name": "Mavi Cafe",
        "opening_hours": "Mo-Fr 07:00-16:00",
        "website": "https://mavicafe.com.au/"
      }
    },
    {
      "type": "node",
      "id": 1977721816,
      "lat": -35.240446,
      "lon": 149.0671533,
      "tags": {
        "addr:housenumber": "54",
        "addr:street": "Benjamin Way",
        "amenity": "cafe",
        "check_date": "2023-10-29",
        "level": "0",
        "name": "54 Benjamin",
        "website": "https://www.54benjamin.com/"
      }
    },
    {
      "type": "node",
      "id": 2002522402,
      "lat": -35.3536257,
      "lon": 149.0892779,
      "tags": {
        "amenity": "restaurant",
        "cuisine": "chinese",
        "name": "Golden King Restaurant",
        "source": "local knowledge"
      }
    },
    {
      "type": "node",
      "id": 2002522412,
      "lat": -35.3534456,
      "lon": 149.0900115,
      "tags": {
        "amenity": "fast_food",
        "name": "VIP Pies"
      }
    },
    {
      "type": "node",
      "id": 2003713461,
      "lat": -35.3545693,
      "lon": 149.0890735,
      "tags": {
        "amenity": "restaurant",
        "cuisine": "indian",
        "name": "Amirtham"
      }
    },
    {
      "type": "node",
      "id": 2003755359,
      "lat": -35.3541007,
      "lon": 149.0872265,
      "tags": {
        "amenity": "fast_food",
        "name": "The Wattle Snack Bar"
      }
    },
    {
      "type": "node",
      "id": 2003768718,
      "lat": -35.3524541,
      "lon": 149.0888438,
      "tags": {
        "amenity": "cafe",
        "name": "Cafe Coffee",
        "source": "local knowledge"
      }
    },
    {
      "type": "node",
      "id": 2008132050,
      "lat": -35.3479864,
      "lon": 149.089124,
      "tags": {
        "amenity": "restaurant",
        "name": "Peppered Prawn",
        "source": "local knowledge"
      }
    },
    {
      "type": "node",
      "id": 2011951968,
      "lat": -35.3501105,
      "lon": 149.0888698,
      "tags": {
        "amenity": "fast_food",
        "name": "Ali Babas",
        "source": "survey"
      }
    },
    {
      "type": "node",
      "id": 2011951971,
      "lat": -35.3499241,
      "lon": 149.0888132,
      "tags": {
        "amenity": "fast_food",
        "brand": "Subway",
        "brand:wikidata": "Q244457",
        "cuisine": "sandwich",
        "name": "Subway",
        "opening_hours": "Mo-Fr 07:00-20:00; Sa 08:00-20:00; PH 11:00-15:00",
        "source": "survey",
        "takeaway": "yes",
        "website": "https://www.subway.com/en-AU"
      }
    },
    {
      "type": "node",
      "id": 2011951972,
      "lat": -35.3499759,
      "lon": 149.0888289,
      "tags": {
        "amenity": "fast_food",
        "cuisine": "chinese",
        "name": "Wok It Up",
        "opening_hours": "Mo-Th 10:30-21:00; Fr 10:30-21:30; Sa 11:00-21:30; Su 11:00-21:00",
        "source": "survey",
        "website": "https://wokitup.com.au/"
      }
    },
    {
      "type": "node",
      "id": 2015911840,
      "lat": -35.3557884,
      "lon": 149.040563,
      "tags": {
        "amenity": "cafe",
        "name": "Chapman Cafe",
        "source": "local knowledge"
      }
    },
    {
      "type": "node",
      "id": 2015911846,
      "lat": -35.3555336,
      "lon": 149.0407991,
      "tags": {
        "name": "Mon Pastries",
        "payment:cash": "yes",
        "payment:visa": "yes",
        "shop": "bakery",
        "source": "local knowledge"
      }
    },
    {
      "type": "node",
      "id": 2015911848,
      "lat": -35.3557115,
      "lon": 149.0405616,
      "tags": {
        "amenity": "restaurant",
        "cuisine": "chinese",
        "name": "Sin Yau Garden",
        "source": "local knowledge"
      }
    },
    {
      "type": "node",
      "id": 2043338450,
      "lat": -35.3073392,
      "lon": 149.0980941,
      "tags": {
        "addr:housenumber": "47",
        "addr:street": "Novar Street",
        "amenity": "fast_food",
        "cuisine": "kebab;turkish",
        "name": "Yarralumla Turkish Pide House",
        "opening_hours": "Mo-Su 09:00-20:30",
        "phone": "+61 2 6281 1991",
        "website": "https://www.halalpidehouse.com.au/index.php"
      }
    },
    {
      "type": "node",
      "id": 2065927912,
      "lat": -35.3519633,
      "lon": 149.0862246,
      "tags": {
        "amenity": "restaurant",
        "cuisine": "chinese",
        "name": "Ming’s Restaurant"
      }
    },
    {
      "type": "node",
      "id": 2071116198,
      "lat": -35.3554315,
      "lon": 149.0981775,
      "tags": {
        "amenity": "restaurant",
        "cuisine": "indian",
        "name": "Malabar Magic"
      }
    },
    {
      "type": "node",
      "id": 2091698085,
      "lat": -35.3366918,
      "lon": 149.0327934,
      "tags": {
        "amenity": "cafe",
        "check_date": "2025-03-10",
        "cuisine": "coffee_shop",
        "internet_access": "no",
        "name": "Niugini Arabica",
        "opening_hours:drive_through": "Mo-Fr 07:00-16:00; Sa-Su 08:00-14:00",
        "outdoor_seating": "yes",
        "payment:cash": "yes",
        "payment:credit_cards": "yes",
        "payment:debit_cards": "yes",
        "shop": "beverages",
        "wheelchair": "limited"
      }
    },
    {
      "type": "node",
      "id": 2130416923,
      "lat": -35.3205085,
      "lon": 149.0976135,
      "tags": {
        "amenity": "cafe",
        "name": "Cafe eQ",
        "source": "local_knowledge"
      }
    },
    {
      "type": "node",
      "id": 2130926344,
      "lat": -35.3004746,
      "lon": 149.1910533,
      "tags": {
        "name": "Lollipop’s Playland",
        "shop": "confectionery",
        "website": "https://canberra.lollipopsplayland.com.au/",
        "wheelchair": "yes"
      }
    },
    {
      "type": "node",
      "id": 2130926380,
      "lat": -35.2984855,
      "lon": 149.1905263,
      "tags": {
        "amenity": "food_court"
      }
    },
    {
      "type": "node",
      "id": 2147419346,
      "lat": -35.2336994,
      "lon": 149.0405222,
      "tags": {
        "addr:street": "Scullin Place",
        "addr:unit": "Shop 3",
        "amenity": "restaurant",
        "check_date": "2024-07-02",
        "cuisine": "chinese",
        "name": "Sue's Kitchen",
        "phone": "+61 2 6254 6947"
      }
    },
    {
      "type": "node",
      "id": 2155587141,
      "lat": -35.4572873,
      "lon": 149.0925308,
      "tags": {
        "amenity": "fast_food",
        "brand": "Subway",
        "brand:wikidata": "Q244457",
        "brand:wikipedia": "en:Subway (restaurant)",
        "cuisine": "sandwich",
        "name": "Subway",
        "takeaway": "yes"
      }
    },
    {
      "type": "node",
      "id": 2155587253,
      "lat": -35.456853,
      "lon": 149.093125,
      "tags": {
        "amenity": "fast_food",
        "brand": "Domino's",
        "brand:wikidata": "Q839466",
        "cuisine": "pizza",
        "name": "Domino's",
        "takeaway": "yes"
      }
    },
    {
      "type": "node",
      "id": 2155592709,
      "lat": -35.4574512,
      "lon": 149.0939463,
      "tags": {
        "addr:housenumber": "17",
        "addr:street": "Sidney Nolan Street",
        "addr:unit": "4",
        "amenity": "fast_food",
        "brand": "Crust",
        "brand:wikidata": "Q100792715",
        "cuisine": "pizza",
        "name": "Crust",
        "official_name": "Crust Gourmet Pizza Bar",
        "opening_hours": "Mo-Su 16:00-22:00",
        "phone": "+61 2 6284 9111",
        "takeaway": "yes",
        "website": "https://www.crust.com.au/stores/act/conder/"
      }
    },
    {
      "type": "node",
      "id": 2156895956,
      "lat": -35.4139808,
      "lon": 149.1284255,
      "tags": {
        "addr:housenumber": "42",
        "addr:street": "Halley Street",
        "amenity": "cafe",
        "contact:email": "info@thepublicplace.com.au",
        "contact:facebook": "https://www.facebook.com/publicchisholm/",
        "contact:phone": "+61 2 6292 9952",
        "cuisine": "coffee_shop;cafe",
        "name": "Public Place",
        "outdoor_seating": "yes",
        "smoking": "no"
      }
    },
    {
      "type": "node",
      "id": 2156900754,
      "lat": -35.4133435,
      "lon": 149.1282228,
      "tags": {
        "amenity": "bar",
        "name": "Chisholm Family Tavern",
        "outdoor_seating": "yes"
      }
    },
    {
      "type": "node",
      "id": 2156916546,
      "lat": -35.434378,
      "lon": 149.113507,
      "tags": {
        "amenity": "restaurant",
        "cuisine": "chinese",
        "name": "Grand Court"
      }
    },
    {
      "type": "node",
      "id": 2159289853,
      "lat": -35.3531691,
      "lon": 149.0882013,
      "tags": {
        "addr:housenumber": "40",
        "addr:street": "Townshend Street",
        "amenity": "cafe",
        "name": "Hansel & Gretel"
      }
    },
    {
      "type": "node",
      "id": 2160505429,
      "lat": -35.379944,
      "lon": 149.0580333,
      "tags": {
        "amenity": "restaurant",
        "cuisine": "chinese",
        "name": "Spring Garden Chinese Restaurant"
      }
    },
    {
      "type": "node",
      "id": 2160505444,
      "lat": -35.3802122,
      "lon": 149.0579675,
      "tags": {
        "amenity": "cafe",
        "name": "Village Cafe",
        "outdoor_seating": "yes"
      }
    },
    {
      "type": "node",
      "id": 2160505491,
      "lat": -35.3801051,
      "lon": 149.0576783,
      "tags": {
        "addr:housenumber": "8",
        "addr:postcode": "2902",
        "addr:state": "ACT",
        "addr:street": "Marconi Crescent",
        "addr:suburb": "Kambah",
        "name": "L’Épi Kambah",
        "opening_hours": "Mo-Su 07:00-17:30",
        "operator": "L’Épi",
        "shop": "bakery",
        "website": "https://lepibakery.com/"
      }
    },
    {
      "type": "node",
      "id": 2161974508,
      "lat": -35.2789967,
      "lon": 149.1319576,
      "tags": {
        "amenity": "restaurant",
        "cuisine": "korean",
        "name": "B-One"
      }
    },
    {
      "type": "node",
      "id": 2161984497,
      "lat": -35.278565,
      "lon": 149.132284,
      "tags": {
        "addr:housenumber": "24",
        "addr:street": "Garema Place",
        "amenity": "restaurant",
        "check_date": "2026-03-23",
        "contact:facebook": "p/RICE-Thai-Restaurant-100047209816315",
        "cuisine": "thai",
        "name": "Rice Thai Restaurant"
      }
    },
    {
      "type": "node",
      "id": 2161987918,
      "lat": -35.278206,
      "lon": 149.13243,
      "tags": {
        "amenity": "fast_food",
        "brand": "Pepper Lunch",
        "brand:wikidata": "Q1016072",
        "brand:wikipedia": "en:Pepper Lunch",
        "cuisine": "teppanyaki",
        "indoor_seating": "yes",
        "name": "Pepper Lunch",
        "outdoor_seating": "no",
        "takeaway": "yes"
      }
    },
    {
      "type": "node",
      "id": 2161989333,
      "lat": -35.278229,
      "lon": 149.132372,
      "tags": {
        "addr:housenumber": "96",
        "addr:street": "Bunda Street",
        "addr:unit": "4",
        "amenity": "fast_food",
        "cuisine": "kebab",
        "name": "Kebaba"
      }
    },
    {
      "type": "node",
      "id": 2161998101,
      "lat": -35.2782891,
      "lon": 149.1316703,
      "tags": {
        "addr:housenumber": "17",
        "addr:street": "Garema Place",
        "addr:unit": "1",
        "amenity": "restaurant",
        "cuisine": "chinese",
        "name": "Happy’s Restaurant",
        "phone": "+61 2 6249 7015",
        "website": "https://www.happys.com.au/"
      }
    },
    {
      "type": "node",
      "id": 2162545291,
      "lat": -35.4141073,
      "lon": 149.1288596,
      "tags": {
        "amenity": "fast_food",
        "name": "Chisholm Pizza & Take Away",
        "source": "local knowledge"
      }
    },
    {
      "type": "node",
      "id": 2164877537,
      "lat": -35.3251345,
      "lon": 149.0824089,
      "tags": {
        "name": "My Gourmet Delights",
        "shop": "deli"
      }
    },
    {
      "type": "node",
      "id": 2168254932,
      "lat": -35.296513,
      "lon": 149.1336172,
      "tags": {
        "amenity": "cafe",
        "name": "Margot"
      }
    },
    {
      "type": "node",
      "id": 2170520854,
      "lat": -35.3242364,
      "lon": 149.155086,
      "tags": {
        "amenity": "fast_food",
        "brand": "Crust",
        "brand:wikidata": "Q100792715",
        "cuisine": "pizza",
        "name": "Crust",
        "official_name": "Crust Gourmet Pizza Bar",
        "takeaway": "yes",
        "toilets": "no",
        "wheelchair": "yes"
      }
    },
    {
      "type": "node",
      "id": 2170520867,
      "lat": -35.3241703,
      "lon": 149.154974,
      "tags": {
        "amenity": "fast_food",
        "name": "Star Kebab House",
        "outdoor_seating": "yes",
        "takeaway": "yes",
        "wheelchair": "yes"
      }
    },
    {
      "type": "node",
      "id": 2176288224,
      "lat": -35.2930089,
      "lon": 149.1216689,
      "tags": {
        "amenity": "cafe",
        "check_date": "2024-05-27",
        "internet_access": "wlan",
        "internet_access:fee": "no",
        "name": "Museum Cafe",
        "opening_hours": "Mo-Su 09:00-16:45",
        "outdoor_seating": "yes",
        "source": "local_knowledge"
      }
    },
    {
      "type": "node",
      "id": 2183249843,
      "lat": -35.3072266,
      "lon": 149.0973692,
      "tags": {
        "amenity": "cafe",
        "name": "Beess & Co",
        "opening_hours": "Mo-Sa 07:00-14:30; Su 08:00-14:30"
      }
    },
    {
      "type": "node",
      "id": 2186516999,
      "lat": -35.298833,
      "lon": 149.135861,
      "tags": {
        "amenity": "cafe",
        "name": "Chambers Cafe"
      }
    },
    {
      "type": "node",
      "id": 2186517707,
      "lat": -35.2996508,
      "lon": 149.1343282,
      "tags": {
        "amenity": "cafe",
        "name": "Portrait Cafe",
        "website": "http://www.portraitgallerycafe.com.au"
      }
    },
    {
      "type": "node",
      "id": 2186517708,
      "lat": -35.3048753,
      "lon": 149.1308792,
      "tags": {
        "addr:street": "Kings Avenue",
        "amenity": "cafe",
        "email": "constitution@tree83.com.au",
        "internet_access": "wlan",
        "internet_access:fee": "no",
        "name": "Cafe Constitution",
        "opening_hours": "Mo-Fr 08:00-15:30; Sa-Su 10:00-14:30",
        "outdoor_seating": "no",
        "phone": "+61 456 962 851",
        "website": "https://www.naa.gov.au/visit-us/cafe-constitution"
      }
    },
    {
      "type": "node",
      "id": 2186593851,
      "lat": -35.2513409,
      "lon": 149.1356898,
      "tags": {
        "amenity": "cafe",
        "check_date": "2025-03-17",
        "name": "Spilt Milk Bar",
        "website": "https://www.spiltmilkbar.com/"
      }
    },
    {
      "type": "node",
      "id": 2210603241,
      "lat": -35.3075024,
      "lon": 149.1254018,
      "tags": {
        "amenity": "cafe",
        "name": "Queen’s Terrace Café",
        "opening_hours": "09:00-16:30; Dec 25 off",
        "phone": "+61 2 6277 5239"
      }
    },
    {
      "type": "node",
      "id": 2212618645,
      "lat": -35.2986275,
      "lon": 149.1286634,
      "tags": {
        "amenity": "cafe",
        "name": "Coffers",
        "name:fa": "کافرز"
      }
    },
    {
      "type": "node",
      "id": 2220116115,
      "lat": -35.2756428,
      "lon": 149.1430232,
      "tags": {
        "amenity": "bar",
        "name": "Ainslie Bar & Bistro"
      }
    },
    {
      "type": "node",
      "id": 2231733684,
      "lat": -35.4144575,
      "lon": 149.0663655,
      "tags": {
        "amenity": "cafe",
        "name": "piccolo me",
        "opening_hours": "Sa,Su 08:00-15:30; Mo-We,Fr 07:00-14:30; Th 09:00-14:30"
      }
    },
    {
      "type": "node",
      "id": 2233292480,
      "lat": -35.2401231,
      "lon": 149.1250769,
      "tags": {
        "amenity": "cafe",
        "name": "Cafe Luzon",
        "opening_hours": "Mo-Fr 07:00-14:30; Sa,Su 08:00-14:00"
      }
    },
    {
      "type": "node",
      "id": 2241510099,
      "lat": -35.3059792,
      "lon": 149.1320627,
      "tags": {
        "amenity": "cafe",
        "internet_access": "no",
        "name": "The 'One' Hub",
        "operator": "Rowlands",
        "smoking": "no",
        "wheelchair": "yes"
      }
    },
    {
      "type": "node",
      "id": 2257914759,
      "lat": -35.383273,
      "lon": 149.0504242,
      "tags": {
        "addr:housenumber": "3",
        "addr:street": "Carleton Street",
        "addr:unit": "1",
        "amenity": "cafe",
        "contact:facebook": "https://www.facebook.com/CafeBlanco000/",
        "name": "Café Blanco"
      }
    },
    {
      "type": "node",
      "id": 2257914764,
      "lat": -35.3832137,
      "lon": 149.0501912,
      "tags": {
        "amenity": "fast_food",
        "name": "Theo’s Takeaway",
        "opening_hours": "Tu-Su 11:00-20:30"
      }
    },
    {
      "type": "node",
      "id": 2266476356,
      "lat": -35.3224268,
      "lon": 149.0935579,
      "tags": {
        "amenity": "cafe",
        "name": "King Street Cafe"
      }
    },
    {
      "type": "node",
      "id": 2266476360,
      "lat": -35.3208374,
      "lon": 149.0944121,
      "tags": {
        "amenity": "cafe",
        "name": "Palette Cafe"
      }
    },
    {
      "type": "node",
      "id": 2266521292,
      "lat": -35.3145149,
      "lon": 149.1071067,
      "tags": {
        "amenity": "restaurant",
        "cuisine": "thai",
        "name": "Deakin Thai Cuisine"
      }
    },
    {
      "type": "node",
      "id": 2266521293,
      "lat": -35.3142773,
      "lon": 149.1069339,
      "tags": {
        "amenity": "restaurant",
        "cuisine": "japanese",
        "name": "Iori Plus"
      }
    },
    {
      "type": "node",
      "id": 2269452564,
      "lat": -35.4138656,
      "lon": 149.0660879,
      "tags": {
        "amenity": "fast_food",
        "brand": "Subway",
        "brand:wikidata": "Q244457",
        "brand:wikipedia": "en:Subway (restaurant)",
        "cuisine": "sandwich",
        "name": "Subway",
        "operator": "Subway",
        "source": "local knowledge",
        "takeaway": "yes"
      }
    },
    {
      "type": "node",
      "id": 2281465717,
      "lat": -35.2878193,
      "lon": 149.0692142,
      "tags": {
        "amenity": "cafe",
        "name": "Sprout Cafe",
        "source": "local knowledge"
      }
    },
    {
      "type": "node",
      "id": 2281465718,
      "lat": -35.2877416,
      "lon": 149.0694276,
      "tags": {
        "amenity": "restaurant",
        "name": "The Conservatory",
        "source": "local knowledge"
      }
    },
    {
      "type": "node",
      "id": 2287652998,
      "lat": -35.2340695,
      "lon": 149.1028946,
      "tags": {
        "amenity": "fast_food",
        "name": "Kaleen Pizza"
      }
    },
    {
      "type": "node",
      "id": 2287652999,
      "lat": -35.2341656,
      "lon": 149.1028872,
      "tags": {
        "amenity": "restaurant",
        "cuisine": "asian;noodle",
        "name": "Awesome Noodle Asian Cuisine"
      }
    },
    {
      "type": "node",
      "id": 2287665059,
      "lat": -35.2088626,
      "lon": 149.0736289,
      "tags": {
        "check_date": "2024-06-29",
        "name": "La Florentina Hot Bake",
        "shop": "bakery"
      }
    },
    {
      "type": "node",
      "id": 2287665060,
      "lat": -35.2088506,
      "lon": 149.0739211,
      "tags": {
        "addr:housenumber": "21",
        "addr:street": "Heydon Place",
        "addr:unit": "2",
        "amenity": "restaurant",
        "check_date": "2024-06-29",
        "contact:facebook": "https://facebook.com/Herberts-at-EVATT-330933247809861/",
        "name": "Herbert's at Evatt",
        "start_date": "2019"
      }
    },
    {
      "type": "node",
      "id": 2293563934,
      "lat": -35.2521918,
      "lon": 149.0737578,
      "tags": {
        "amenity": "restaurant",
        "check_date": "2023-10-21",
        "contact:facebook": "https://facebook.com/pages/Dumpling-Inn-Restaurant/104787206250329",
        "cuisine": "chinese",
        "name": "Dumpling Inn"
      }
    },
    {
      "type": "node",
      "id": 2293563935,
      "lat": -35.2522127,
      "lon": 149.0728816,
      "tags": {
        "amenity": "restaurant",
        "cuisine": "italian",
        "name": "Pizza Artigiana",
        "shop": "frame",
        "takeaway": "yes",
        "website": "https://pizza-artigiana.com.au/"
      }
    },
    {
      "type": "node",
      "id": 2293571612,
      "lat": -35.2530308,
      "lon": 149.0710575,
      "tags": {
        "brand": "Bakers Delight",
        "brand:wikidata": "Q4849261",
        "brand:wikipedia": "en:Bakers Delight",
        "check_date": "2024-06-06",
        "name": "Bakers Delight",
        "shop": "bakery",
        "website": "https://www.bakersdelight.com.au/bakery-locator/jamison/"
      }
    },
    {
      "type": "node",
      "id": 2293571614,
      "lat": -35.2529969,
      "lon": 149.071357,
      "tags": {
        "amenity": "fast_food",
        "brand": "Donut King",
        "brand:wikidata": "Q5296921",
        "brand:wikipedia": "en:Donut King",
        "check_date": "2024-06-06",
        "cuisine": "donut;coffee_shop",
        "drive_through": "no",
        "name": "Donut King",
        "takeaway": "yes"
      }
    },
    {
      "type": "node",
      "id": 2293571616,
      "lat": -35.2530309,
      "lon": 149.0711914,
      "tags": {
        "amenity": "fast_food",
        "check_date": "2024-06-06",
        "name": "Hot Lantern"
      }
    },
    {
      "type": "node",
      "id": 2293571618,
      "lat": -35.2531053,
      "lon": 149.0707133,
      "tags": {
        "amenity": "fast_food",
        "check_date": "2024-06-06",
        "name": "Jamison Takeaway"
      }
    },
    {
      "type": "node",
      "id": 2293571622,
      "lat": -35.2531789,
      "lon": 149.0707132,
      "tags": {
        "amenity": "fast_food",
        "brand": "Zambrero",
        "brand:wikidata": "Q18636431",
        "brand:wikipedia": "en:Zambrero",
        "check_date": "2024-06-06",
        "cuisine": "mexican",
        "name": "Zambrero",
        "takeaway": "yes",
        "website": "https://www.zambrero.com.au/locations/jamison"
      }
    },
    {
      "type": "node",
      "id": 2294494254,
      "lat": -35.3339354,
      "lon": 149.0938854,
      "tags": {
        "amenity": "fast_food",
        "name": "Hughes Takeaway",
        "opening_hours": "Mo-Th 10:00-20:00; Fr 09:00-20:00; Sa 11:00-20:00; Su off"
      }
    },
    {
      "type": "node",
      "id": 2294494309,
      "lat": -35.3336114,
      "lon": 149.09387,
      "tags": {
        "amenity": "cafe",
        "name": "Home Ground",
        "opening_hours": "Mo-Fr 07:00-15:30; Sa 07:00-14:00; Su,PH off"
      }
    },
    {
      "type": "node",
      "id": 2296798402,
      "lat": -35.284764,
      "lon": 149.1249709,
      "tags": {
        "amenity": "cafe",
        "check_date": "2023-10-25",
        "name": "Mocan & Green Grout"
      }
    },
    {
      "type": "node",
      "id": 2296811773,
      "lat": -35.285209,
      "lon": 149.1231827,
      "tags": {
        "amenity": "cafe",
        "name": "Palace Electric"
      }
    },
    {
      "type": "node",
      "id": 2301275091,
      "lat": -35.2244165,
      "lon": 149.1115754,
      "tags": {
        "amenity": "restaurant",
        "cuisine": "turkish",
        "name": "My Pide Corner"
      }
    },
    {
      "type": "node",
      "id": 2337834599,
      "lat": -35.3325029,
      "lon": 149.1541137,
      "tags": {
        "addr:housenumber": "4",
        "addr:postcode": "2604",
        "addr:state": "ACT",
        "addr:street": "Iluka Street",
        "addr:suburb": "Narrabundah",
        "amenity": "restaurant",
        "cuisine": "italian",
        "name": "La Cantina",
        "phone": "+61 2 6239 5556",
        "website": "https://www.la-cantina.com.au"
      }
    },
    {
      "type": "node",
      "id": 2337834994,
      "lat": -35.3326999,
      "lon": 149.1539635,
      "tags": {
        "addr:housenumber": "6",
        "addr:postcode": "2604",
        "addr:state": "ACT",
        "addr:street": "Iluka Street",
        "addr:suburb": "Narrabundah",
        "name": "Danny's Bakery",
        "phone": "+61 2 6295 7545",
        "shop": "bakery",
        "website": "https://www.dannysbakery.com.au"
      }
    },
    {
      "type": "node",
      "id": 2337845307,
      "lat": -35.3281546,
      "lon": 149.1426763,
      "tags": {
        "addr:housenumber": "8",
        "addr:postcode": "2603",
        "addr:state": "ACT",
        "addr:street": "Barker Street",
        "addr:suburb": "Griffith",
        "addr:unit": "1",
        "amenity": "restaurant",
        "cuisine": "thai",
        "name": "SOI VIII Thai on Griffith",
        "opening_hours": "Mo 17:00-21:00; We-Su 17:00-21:00",
        "phone": "+61 2 6239 7999"
      }
    },
    {
      "type": "node",
      "id": 2337845391,
      "lat": -35.3278683,
      "lon": 149.1420277,
      "tags": {
        "addr:housenumber": "18",
        "addr:street": "Barker Street",
        "amenity": "restaurant",
        "name": "Aubergine",
        "smoking": "no",
        "website": "https://www.aubergine.com.au/site/"
      }
    },
    {
      "type": "node",
      "id": 2337851171,
      "lat": -35.338739,
      "lon": 149.1485132,
      "tags": {
        "addr:street": "Goyder Street",
        "amenity": "restaurant",
        "name": "203 Restaurant and Bar",
        "opening_hours": "PH,Mo-Su 07:00-09:00,17:30-20:00"
      }
    },
    {
      "type": "node",
      "id": 2337863217,
      "lat": -35.3412049,
      "lon": 149.1312533,
      "tags": {
        "addr:housenumber": "4",
        "addr:street": "Duyfken Place",
        "addr:unit": "4",
        "amenity": "fast_food",
        "cuisine": "pizza",
        "drive_through": "no",
        "name": "Bravo Pizza",
        "phone": "+61 448 776 996",
        "website": "https://bravopizza.com.au"
      }
    },
    {
      "type": "node",
      "id": 2375611360,
      "lat": -35.3327138,
      "lon": 149.1535725,
      "tags": {
        "amenity": "restaurant",
        "name": "d'Browes"
      }
    },
    {
      "type": "node",
      "id": 2375611377,
      "lat": -35.332753,
      "lon": 149.1539209,
      "tags": {
        "addr:housenumber": "16",
        "addr:postcode": "2604",
        "addr:state": "ACT",
        "addr:street": "Iluka Street",
        "addr:suburb": "Narrabundah",
        "amenity": "restaurant",
        "name": "Cafe de Sareen",
        "phone": "+61 2 6189 8969",
        "website": "https://www.cafedesareen.com.au"
      }
    },
    {
      "type": "node",
      "id": 2411939629,
      "lat": -35.2983,
      "lon": 149.131584,
      "tags": {
        "amenity": "cafe",
        "name": "Mega Bites Cafe"
      }
    },
    {
      "type": "node",
      "id": 2414428871,
      "lat": -35.3065678,
      "lon": 149.133917,
      "tags": {
        "amenity": "restaurant",
        "indoor_seating": "yes",
        "name": "Burger Craft",
        "outdoor_seating": "yes"
      }
    },