{
  "elements": [
    {
      "type": "node",
      "id": 21279501,
      "lat": -27.1863046,
      "lon": 151.2662204,
      "tags": {
        "amenity": "pub",
        "name": "Criterion Hotel"
      }
    },
    {
      "type": "node",
      "id": 21279503,
      "lat": -27.1794538,
      "lon": 151.2684774,
      "tags": {
        "amenity": "pub",
        "name": "Imperial Hotel",
        "note": "The 1880 hotel was destroyed by fire in the early hours of Saturday 17 October, 2009. The blaze broke out in the downstairs bar and kitchen area and with Publicans losing all their personal possessions and records."
      }
    },
    {
      "type": "node",
      "id": 21279654,
      "lat": -27.1818231,
      "lon": 151.2626972,
      "tags": {
        "amenity": "fast_food",
        "brand": "McDonald's",
        "brand:wikidata": "Q38076",
        "brand:wikipedia": "en:McDonald's",
        "cuisine": "burger",
        "name": "McDonald's",
        "takeaway": "yes",
        "website": "https://www.mcdonalds.com.au/"
      }
    },
    {
      "type": "node",
      "id": 21279659,
      "lat": -27.1801519,
      "lon": 151.2682087,
      "tags": {
        "amenity": "pub",
        "name": "Russell Tavern"
      }
    },
    {
      "type": "node",
      "id": 21293237,
      "lat": -27.1798216,
      "lon": 151.2641179,
      "tags": {
        "amenity": "pub",
        "name": "Windsor Hotel Motel",
        "tourism": "motel"
      }
    },
    {
      "type": "node",
      "id": 21293304,
      "lat": -27.1838752,
      "lon": 151.2641249,
      "tags": {
        "amenity": "fast_food",
        "brand": "Red Rooster",
        "brand:wikidata": "Q376466",
        "brand:wikipedia": "en:Red Rooster",
        "cuisine": "chicken",
        "name": "Red Rooster",
        "takeaway": "yes",
        "website": "https://www.redrooster.com.au/"
      }
    },
    {
      "type": "node",
      "id": 21293316,
      "lat": -27.1815044,
      "lon": 151.2664442,
      "tags": {
        "amenity": "cafe",
        "name": "Michaels Cafe",
        "phone": "+61 422 134 339"
      }
    },
    {
      "type": "node",
      "id": 21293326,
      "lat": -27.181296,
      "lon": 151.2631646,
      "tags": {
        "amenity": "fast_food",
        "brand": "Domino's",
        "brand:wikidata": "Q839466",
        "brand:wikipedia": "en:Domino's Pizza",
        "cuisine": "pizza",
        "name": "Domino's",
        "takeaway": "yes"
      }
    },
    {
      "type": "node",
      "id": 21293327,
      "lat": -27.1812387,
      "lon": 151.2623975,
      "tags": {
        "addr:housenumber": "14",
        "addr:postcode": "4405",
        "addr:state": "QLD",
        "addr:suburb": "Dalby",
        "amenity": "restaurant",
        "cuisine": "mexican",
        "name": "Burrito Bar"
      }
    },
    {
      "type": "node",
      "id": 21293671,
      "lat": -27.1805777,
      "lon": 151.2608364,
      "tags": {
        "alt_name": "Kentucky Fried Chicken",
        "amenity": "fast_food",
        "brand": "KFC",
        "brand:wikidata": "Q524757",
        "brand:wikipedia": "en:KFC",
        "cuisine": "chicken",
        "name": "KFC",
        "takeaway": "yes"
      }
    },
    {
      "type": "node",
      "id": 21293673,
      "lat": -27.1804743,
      "lon": 151.2599691,
      "tags": {
        "amenity": "restaurant",
        "name": "Manor Motor Inn",
        "tourism": "motel"
      }
    },
    {
      "type": "node",
      "id": 21293832,
      "lat": -27.1881708,
      "lon": 151.2673581,
      "tags": {
        "air_conditioning": "yes",
        "amenity": "fast_food",
        "branch": "Dalby",
        "brand": "Hungry Jack's",
        "brand:wikidata": "Q3036373",
        "brand:wikipedia": "en:Hungry Jack's",
        "cuisine": "burger",
        "description": "Opened at this location in March 2023.",
        "drive_through": "yes",
        "name": "Hungry Jack's",
        "operator": "Hungry Jack's",
        "takeaway": "yes",
        "website": "https://www.hungryjacks.com.au/"
      }
    },
    {
      "type": "node",
      "id": 21293833,
      "lat": -27.1835569,
      "lon": 151.2636241,
      "tags": {
        "amenity": "pub",
        "name": "Country Club Hotel"
      }
    },
    {
      "type": "node",
      "id": 21294355,
      "lat": -27.1800647,
      "lon": 151.2662422,
      "tags": {
        "amenity": "cafe",
        "name": "The Duck Inn Coffee Shop"
      }
    },
    {
      "type": "node",
      "id": 21294357,
      "lat": -27.1804632,
      "lon": 151.2672202,
      "tags": {
        "amenity": "pub",
        "name": "The Australian",
        "tourism": "hotel"
      }
    },
    {
      "type": "node",
      "id": 21294358,
      "lat": -27.1804189,
      "lon": 151.2672969,
      "tags": {
        "amenity": "restaurant"
      }
    },
    {
      "type": "node",
      "id": 21294449,
      "lat": -27.1808825,
      "lon": 151.2672555,
      "tags": {
        "amenity": "fast_food",
        "brand": "Subway",
        "brand:wikidata": "Q244457",
        "brand:wikipedia": "en:Subway (restaurant)",
        "cuisine": "sandwich",
        "name": "Subway",
        "takeaway": "yes",
        "website": "https://www.subway.com.au/"
      }
    },
    {
      "type": "node",
      "id": 21312203,
      "lat": -27.5544037,
      "lon": 151.9752085,
      "tags": {
        "amenity": "cafe",
        "name": "Gourmet Cafe"
      }
    },
    {
      "type": "node",
      "id": 21312514,
      "lat": -27.5660658,
      "lon": 151.9784803,
      "tags": {
        "amenity": "restaurant",
        "created_by": "JOSM",
        "name": "The Toowoomba Motel & Event Centre",
        "tourism": "motel"
      }
    },
    {
      "type": "node",
      "id": 21312515,
      "lat": -27.5659711,
      "lon": 151.9785395,
      "tags": {
        "amenity": "restaurant",
        "created_by": "JOSM",
        "name": "K's Restaurant"
      }
    },
    {
      "type": "node",
      "id": 21312516,
      "lat": -27.5660066,
      "lon": 151.9787881,
      "tags": {
        "amenity": "restaurant",
        "created_by": "JOSM",
        "name": "Lords Restaurant & Event Centre"
      }
    },
    {
      "type": "node",
      "id": 21312755,
      "lat": -27.5715205,
      "lon": 151.9763994,
      "tags": {
        "amenity": "cafe",
        "name": "CC's on the Range Bakehouse"
      }
    },
    {
      "type": "node",
      "id": 21312757,
      "lat": -27.5715323,
      "lon": 151.9758532,
      "tags": {
        "amenity": "fast_food",
        "cuisine": "chinese",
        "name": "Leongs Chinese Kitchen"
      }
    },
    {
      "type": "node",
      "id": 21321272,
      "lat": -27.5621157,
      "lon": 151.95844,
      "tags": {
        "amenity": "cafe",
        "created_by": "JOSM",
        "name": "Banque"
      }
    },
    {
      "type": "node",
      "id": 21321274,
      "lat": -27.5695224,
      "lon": 151.9611307,
      "tags": {
        "amenity": "restaurant"
      }
    },
    {
      "type": "node",
      "id": 21321467,
      "lat": -27.5791896,
      "lon": 151.9878067,
      "tags": {
        "amenity": "bar"
      }
    },
    {
      "type": "node",
      "id": 21321517,
      "lat": -27.5858851,
      "lon": 151.9786106,
      "tags": {
        "amenity": "cafe",
        "cuisine": "coffee_shop",
        "name": "Linrose Cottage Coffee House"
      }
    },
    {
      "type": "node",
      "id": 21321521,
      "lat": -27.585541,
      "lon": 151.9785998,
      "tags": {
        "amenity": "fast_food",
        "cuisine": "pizza",
        "name": "Ferdinando's Pizza"
      }
    },
    {
      "type": "node",
      "id": 21321523,
      "lat": -27.5857644,
      "lon": 151.9786007,
      "tags": {
        "amenity": "fast_food",
        "cuisine": "fish_and_chips",
        "name": "High Street Wharf Seafood & Takeaway"
      }
    },
    {
      "type": "node",
      "id": 21321526,
      "lat": -27.586192,
      "lon": 151.978349,
      "tags": {
        "amenity": "fast_food",
        "cuisine": "pies",
        "name": "Harry's Bakery"
      }
    },
    {
      "type": "node",
      "id": 21321528,
      "lat": -27.5859375,
      "lon": 151.9788138,
      "tags": {
        "amenity": "cafe",
        "name": "Carvery"
      }
    },
    {
      "type": "node",
      "id": 21321697,
      "lat": -27.5804894,
      "lon": 151.964185,
      "tags": {
        "addr:housenumber": "140",
        "addr:postcode": "4350",
        "addr:street": "South Street",
        "addr:unit": "8",
        "amenity": "restaurant",
        "name": "Cafe 63",
        "opening_hours": "Mo-Su 05:30-21:00",
        "phone:AU": "1300 636 300",
        "website": "https://cafe63.com.au/"
      }
    },
    {
      "type": "node",
      "id": 21321700,
      "lat": -27.5804657,
      "lon": 151.9639632,
      "tags": {
        "addr:housenumber": "140",
        "addr:postcode": "4350",
        "addr:street": "South Street",
        "amenity": "restaurant",
        "cuisine": "thai",
        "name": "Thai Royal Restaurant",
        "opening_hours": "Mo-Su 11:00-14:30, 16:30-21:30",
        "phone": "+61 7 4687 6808",
        "website": "https://www.thairoyalrestaurant.com.au/"
      }
    },
    {
      "type": "node",
      "id": 21381100,
      "lat": -28.2019368,
      "lon": 153.5644896,
      "tags": {
        "amenity": "cafe",
        "created_by": "JOSM",
        "name": "Sheoak Shack Gallery Cafe"
      }
    },
    {
      "type": "node",
      "id": 21382940,
      "lat": -28.3864224,
      "lon": 153.3259005,
      "tags": {
        "amenity": "cafe",
        "name": "Rainforest Cafe"
      }
    },
    {
      "type": "node",
      "id": 21384784,
      "lat": -28.620485,
      "lon": 153.0039416,
      "tags": {
        "addr:housenumber": "88",
        "addr:state": "NSW",
        "addr:street": "Summerland Way",
        "addr:suburb": "Kyogle",
        "amenity": "restaurant",
        "cuisine": "chinese",
        "name": "August Moon Chinese Restaurant"
      }
    },
    {
      "type": "node",
      "id": 21384789,
      "lat": -28.6217622,
      "lon": 153.0037508,
      "tags": {
        "amenity": "cafe",
        "name": "Box & Dice Cafe"
      }
    },
    {
      "type": "node",
      "id": 21384791,
      "lat": -28.6208249,
      "lon": 153.0035884,
      "tags": {
        "addr:housenumber": "97",
        "addr:postcode": "2474",
        "addr:state": "NSW",
        "addr:street": "Summerland Way",
        "addr:suburb": "Kyogle",
        "amenity": "pub",
        "name": "Commercial Hotel Kyogle"
      }
    },
    {
      "type": "node",
      "id": 21384792,
      "lat": -28.6202245,
      "lon": 153.0034402,
      "tags": {
        "addr:housenumber": "73-75",
        "addr:postcode": "2474",
        "addr:state": "NSW",
        "addr:street": "Summerland Way",
        "addr:suburb": "Kyogle",
        "name": "Dave's Bakery",
        "shop": "bakery",
        "wheelchair": "yes"
      }
    },
    {
      "type": "node",
      "id": 21384793,
      "lat": -28.619484,
      "lon": 153.003484,
      "tags": {
        "amenity": "fast_food",
        "cuisine": "burger;cake;fish_and_chips;sandwich",
        "name": "Ruby's Cafe",
        "outdoor_seating": "yes",
        "takeaway": "yes"
      }
    },
    {
      "type": "node",
      "id": 21506976,
      "lat": -27.5557676,
      "lon": 151.9645904,
      "tags": {
        "addr:housenumber": "27",
        "addr:postcode": "4350",
        "addr:state": "QLD",
        "addr:street": "Lindsay Street",
        "addr:suburb": "East Toowoomba",
        "amenity": "cafe",
        "name": "Cobb's Coffee Shop",
        "opening_hours": "9:30-15:30",
        "outdoor_seating": "yes",
        "website": "https://cobb.qm.qld.gov.au/Visit+Us/Cobbs+Coffee+shop"
      }
    },
    {
      "type": "node",
      "id": 21506988,
      "lat": -27.5534424,
      "lon": 151.9643707,
      "tags": {
        "amenity": "restaurant",
        "name": "Futures - Student Training Restaurant",
        "opening_hours": "\"Only open for certain functions\""
      }
    },
    {
      "type": "node",
      "id": 21554711,
      "lat": -27.5621097,
      "lon": 151.9529623,
      "tags": {
        "amenity": "cafe",
        "name": "Rendezvous Cafe"
      }
    },
    {
      "type": "node",
      "id": 21555134,
      "lat": -27.5530418,
      "lon": 151.9679296,
      "tags": {
        "amenity": "fast_food",
        "name": "Crackerjack Chicken"
      }
    },
    {
      "type": "node",
      "id": 21555135,
      "lat": -27.5531519,
      "lon": 151.9680367,
      "tags": {
        "amenity": "cafe",
        "name": "Duo Bakery and Cafe"
      }
    },
    {
      "type": "node",
      "id": 21555137,
      "lat": -27.5536923,
      "lon": 151.9673595,
      "tags": {
        "amenity": "cafe",
        "name": "Wendland Fine Foods"
      }
    },
    {
      "type": "node",
      "id": 21555310,
      "lat": -27.5650199,
      "lon": 151.9564883,
      "tags": {
        "amenity": "fast_food",
        "cuisine": "fish_and_chips",
        "name": "Stoney's"
      }
    },
    {
      "type": "node",
      "id": 21555311,
      "lat": -27.5650926,
      "lon": 151.9565814,
      "tags": {
        "amenity": "cafe",
        "created_by": "JOSM",
        "name": "Bakery Cafe"
      }
    },
    {
      "type": "node",
      "id": 21555315,
      "lat": -27.5635896,
      "lon": 151.9575371,
      "tags": {
        "amenity": "cafe",
        "name": "Bites"
      }
    },
    {
      "type": "node",
      "id": 25984264,
      "lat": -29.1534243,
      "lon": 153.2979002,
      "tags": {
        "amenity": "restaurant",
        "created_by": "JOSM",
        "name": "New Italy Museum Cafe",
        "source": "local_knowledge"
      }
    },
    {
      "type": "node",
      "id": 86848345,
      "lat": -28.3033521,
      "lon": 153.5696867,
      "tags": {
        "amenity": "cafe",
        "created_by": "Potlatch 0.5c"
      }
    },
    {
      "type": "node",
      "id": 86856558,
      "lat": -28.2771153,
      "lon": 153.5774497,
      "tags": {
        "amenity": "cafe",
        "name": "Mosaic Acai",
        "source": "survey"
      }
    },
    {
      "type": "node",
      "id": 185931585,
      "lat": -28.0297042,
      "lon": 153.4348433,
      "tags": {
        "amenity": "restaurant",
        "name": "Kurrawa Surf Club",
        "wheelchair": "yes"
      }
    },
    {
      "type": "node",
      "id": 186851312,
      "lat": -27.6125642,
      "lon": 152.796684,
      "tags": {
        "amenity": "fast_food",
        "branch": "Booval",
        "brand": "McDonald's",
        "brand:wikidata": "Q38076",
        "brand:wikipedia": "en:McDonald's",
        "cuisine": "burger",
        "name": "McDonald's",
        "takeaway": "yes"
      }
    },
    {
      "type": "node",
      "id": 187817676,
      "lat": -27.6145683,
      "lon": 152.7897177,
      "tags": {
        "amenity": "fast_food",
        "brand": "Red Rooster",
        "brand:wikidata": "Q376466",
        "brand:wikipedia": "en:Red Rooster",
        "cuisine": "chicken",
        "name": "Red Rooster",
        "takeaway": "yes"
      }
    },
    {
      "type": "node",
      "id": 197379496,
      "lat": -28.077892,
      "lon": 153.4465618,
      "tags": {
        "amenity": "fast_food",
        "brand": "McDonald's",
        "brand:wikidata": "Q38076",
        "brand:wikipedia": "en:McDonald's",
        "check_date": "2026-05-20",
        "cuisine": "burger",
        "drive_through": "yes",
        "name": "McDonald's",
        "operator": "McDonald's Burleigh Heads",
        "phone": "+61 7 5576 2133",
        "takeaway": "yes",
        "website": "https://mcdonalds.com.au"
      }
    },
    {
      "type": "node",
      "id": 198506682,
      "lat": -27.441646,
      "lon": 153.0448428,
      "tags": {
        "amenity": "restaurant",
        "name": "Breakfast Creek Wharf Restaurant"
      }
    },
    {
      "type": "node",
      "id": 204171431,
      "lat": -27.5730188,
      "lon": 153.3299745,
      "tags": {
        "addr:housenumber": "10-16",
        "addr:street": "Dawn Street",
        "amenity": "restaurant",
        "name": "Oasis on Coochiemudlo Resturant",
        "tourism": "hotel"
      }
    },
    {
      "type": "node",
      "id": 215062462,
      "lat": -27.5063098,
      "lon": 152.9494735,
      "tags": {
        "amenity": "pub",
        "name": "The Kenmore"
      }
    },
    {
      "type": "node",
      "id": 222295011,
      "lat": -26.1998133,
      "lon": 152.6667676,
      "tags": {
        "amenity": "fast_food"
      }
    },
    {
      "type": "node",
      "id": 247163664,
      "lat": -20.0142963,
      "lon": 148.2472427,
      "tags": {
        "amenity": "pub",
        "name": "Central Hotel"
      }
    },
    {
      "type": "node",
      "id": 247163675,
      "lat": -20.0154216,
      "lon": 148.2479294,
      "tags": {
        "amenity": "pub",
        "name": "Grandview Hotel",
        "opening_hours": "Su-Tu 10:00-00:00; We-Th 10:00-00:30; Fr-Sa 10:00-02:00",
        "smoking": "separated",
        "website": "https://www.grandviewhotelbowen.com/"
      }
    },
    {
      "type": "node",
      "id": 247163684,
      "lat": -20.0132794,
      "lon": 148.2448344,
      "tags": {
        "amenity": "pub",
        "name": "Denison Hotel"
      }
    },
    {
      "type": "node",
      "id": 247163702,
      "lat": -20.0131385,
      "lon": 148.2466258,
      "tags": {
        "amenity": "pub",
        "name": "North Australian Hotel"
      }
    },
    {
      "type": "node",
      "id": 247163947,
      "lat": -20.0118757,
      "lon": 148.245833,
      "tags": {
        "amenity": "pub",
        "name": "Memorial Club"
      }
    },
    {
      "type": "node",
      "id": 247166887,
      "lat": -20.0149589,
      "lon": 148.1668888,
      "tags": {
        "amenity": "pub",
        "created_by": "Potlatch 0.7",
        "name": "Merinda Hotel"
      }
    },
    {
      "type": "node",
      "id": 250514669,
      "lat": -27.5457571,
      "lon": 153.0394951,
      "tags": {
        "amenity": "fast_food",
        "brand": "McDonald's",
        "brand:wikidata": "Q38076",
        "brand:wikipedia": "en:McDonald's",
        "cuisine": "burger",
        "name": "McDonald's",
        "opening_hours": "24/7",
        "takeaway": "yes"
      }
    },
    {
      "type": "node",
      "id": 262262895,
      "lat": -27.4419167,
      "lon": 152.9261985,
      "tags": {
        "amenity": "cafe"
      }
    },
    {
      "type": "node",
      "id": 262547662,
      "lat": -26.5951568,
      "lon": 152.7277411,
      "tags": {
        "amenity": "pub",
        "created_by": "JOSM",
        "name": "Kenilworth Hotel"
      }
    },
    {
      "type": "node",
      "id": 266580246,
      "lat": -27.6632846,
      "lon": 153.1730644,
      "tags": {
        "amenity": "pub",
        "check_date": "2024-01-02",
        "created_by": "Potlatch 0.9a",
        "name": "Fitzy's"
      }
    },
    {
      "type": "node",
      "id": 266627849,
      "lat": -16.9204548,
      "lon": 145.7806127,
      "tags": {
        "amenity": "restaurant",
        "name": "Shangri-La",
        "tourism": "hotel"
      }
    },
    {
      "type": "node",
      "id": 269183415,
      "lat": -27.4449651,
      "lon": 153.0294048,
      "tags": {
        "amenity": "fast_food",
        "brand": "Hungry Jack's",
        "brand:wikidata": "Q3036373",
        "brand:wikipedia": "en:Hungry Jack's",
        "cuisine": "burger",
        "drive_through": "yes",
        "name": "Hungry Jack's",
        "takeaway": "yes"
      }
    },
    {
      "type": "node",
      "id": 270451159,
      "lat": -27.5759135,
      "lon": 152.982522,
      "tags": {
        "amenity": "pub",
        "entrance": "yes",
        "name": "Oxley Tavern"
      }
    },
    {
      "type": "node",
      "id": 277090229,
      "lat": -27.5743201,
      "lon": 151.9515319,
      "tags": {
        "addr:country": "AU",
        "amenity": "restaurant",
        "name": "Lotus Village Chinese Restaurant"
      }
    },
    {
      "type": "node",
      "id": 283932294,
      "lat": -21.6947576,
      "lon": 139.5136097,
      "tags": {
        "amenity": "pub",
        "name": "Dajarra Hotel",
        "source": "survey"
      }
    },
    {
      "type": "node",
      "id": 286457392,
      "lat": -16.260158,
      "lon": 145.340458,
      "tags": {
        "amenity": "restaurant",
        "name": "Daintree Eco Lodge and Spa"
      }
    },
    {
      "type": "node",
      "id": 286709297,
      "lat": -16.2137797,
      "lon": 145.4045819,
      "tags": {
        "amenity": "cafe",
        "cuisine": "ice_cream",
        "name": "Daintree Ice-cream Company",
        "opening_hours": "Mo-Su 09:00-17:00"
      }
    },
    {
      "type": "node",
      "id": 286722923,
      "lat": -16.9243035,
      "lon": 145.3601541,
      "tags": {
        "amenity": "cafe",
        "tourism": "attraction"
      }
    },
    {
      "type": "node",
      "id": 286731094,
      "lat": -17.2460145,
      "lon": 145.6390147,
      "tags": {
        "amenity": "restaurant",
        "name": "Lake Barrine Tea House Restaurant",
        "source": "survey"
      }
    },
    {
      "type": "node",
      "id": 289380823,
      "lat": -27.453165,
      "lon": 153.0341088,
      "tags": {
        "amenity": "restaurant",
        "cuisine": "barbecue;mongolian",
        "name": "Genghis Khan"
      }
    },
    {
      "type": "node",
      "id": 289380850,
      "lat": -27.4574771,
      "lon": 153.0305518,
      "tags": {
        "amenity": "pub",
        "name": "L'Academie Hotel"
      }
    },
    {
      "type": "node",
      "id": 289380852,
      "lat": -27.4575554,
      "lon": 153.0304735,
      "tags": {
        "amenity": "restaurant",
        "name": "L'Academie Restaurant"
      }
    },
    {
      "type": "node",
      "id": 291234521,
      "lat": -20.6579394,
      "lon": 141.740997,
      "tags": {
        "amenity": "restaurant; pub",
        "leisure": "sports_centre",
        "name": "Town & Country Club",
        "sport": "bowls"
      }
    },
    {
      "type": "node",
      "id": 291234523,
      "lat": -20.6573962,
      "lon": 141.7456292,
      "tags": {
        "amenity": "pub",
        "name": "Gannon's Hotel Motel",
        "tourism": "hotel; motel"
      }
    },
    {
      "type": "node",
      "id": 291234525,
      "lat": -20.6581468,
      "lon": 141.7460736,
      "tags": {
        "amenity": "pub",
        "name": "Julia Creek Hotel Motel",
        "tourism": "hotel;motel"
      }
    },
    {
      "type": "node",
      "id": 292864566,
      "lat": -27.439042,
      "lon": 153.0304885,
      "tags": {
        "amenity": "fast_food",
        "brand": "McDonald's",
        "brand:wikidata": "Q38076",
        "brand:wikipedia": "en:McDonald's",
        "check_date": "2024-06-22",
        "cuisine": "burger",
        "name": "McDonald's",
        "takeaway": "yes"
      }
    },
    {
      "type": "node",
      "id": 294406618,
      "lat": -27.4369698,
      "lon": 153.0066076,
      "tags": {
        "addr:housenumber": "110",
        "addr:street": "Enoggera Road",
        "addr:suburb": "Newmarket",
        "amenity": "fast_food",
        "brand": "Domino's",
        "brand:wikidata": "Q839466",
        "brand:wikipedia": "en:Domino's Pizza",
        "cuisine": "pizza",
        "delivery": "yes",
        "drive_through": "no",
        "name": "Domino's",
        "takeaway": "yes"
      }
    },
    {
      "type": "node",
      "id": 295012539,
      "lat": -21.356141,
      "lon": 139.8646259,
      "tags": {
        "amenity": "pub",
        "name": "The Thirsty Camel"
      }
    },
    {
      "type": "node",
      "id": 296332890,
      "lat": -20.7304321,
      "lon": 143.1420162,
      "tags": {
        "addr:housenumber": "64",
        "addr:street": "Goldring Street",
        "amenity": "pub",
        "email": "federalpalacehotel@outlook.com",
        "fax": "+61 7 4741 3119",
        "name": "Federal Palace Hotel",
        "phone": "+61 7 4741 3463",
        "source": "survey",
        "website": "https://www.federalpalacehotel.com"
      }
    },
    {
      "type": "node",
      "id": 297845256,
      "lat": -27.1891028,
      "lon": 151.2705173,
      "tags": {
        "amenity": "restaurant",
        "name": "Dalby Leagues Club"
      }
    },
    {
      "type": "node",
      "id": 298567777,
      "lat": -27.46703,
      "lon": 152.98724,
      "tags": {
        "amenity": "fast_food",
        "name": "Rainworth Fish and Chips"
      }
    },
    {
      "type": "node",
      "id": 300456575,
      "lat": -27.1536409,
      "lon": 152.9755218,
      "tags": {
        "amenity": "fast_food",
        "brand": "Subway",
        "brand:wikidata": "Q244457",
        "cuisine": "sandwich",
        "name": "Subway",
        "takeaway": "yes"
      }
    },
    {
      "type": "node",
      "id": 301103298,
      "lat": -27.3916567,
      "lon": 153.0109432,
      "tags": {
        "amenity": "fast_food",
        "brand": "Pizza Capers",
        "brand:wikidata": "Q17021875",
        "brand:wikipedia": "en:Pizza Capers",
        "cuisine": "pizza",
        "name": "Pizza Capers",
        "takeaway": "yes"
      }
    },
    {
      "type": "node",
      "id": 301699496,
      "lat": -27.5119671,
      "lon": 153.0143823,
      "tags": {
        "amenity": "restaurant",
        "cuisine": "pizza",
        "diet:vegan": "no",
        "diet:vegetarian": "yes",
        "indoor_seating": "yes",
        "name": "Pizzeria 1760",
        "opening_hours": "Tu,We,Su 17:00-20:00; Th-Sa 17:00-20:30",
        "outdoor_seating": "sidewalk",
        "wheelchair": "yes"
      }
    },
    {
      "type": "node",
      "id": 303071810,
      "lat": -27.4629903,
      "lon": 153.0410403,
      "tags": {
        "amenity": "restaurant",
        "name": "Chang Thai"
      }
    },
    {
      "type": "node",
      "id": 303071813,
      "lat": -27.4632194,
      "lon": 153.0412871,
      "tags": {
        "addr:housenumber": "650",
        "amenity": "restaurant",
        "cuisine": "patisserie",
        "name": "Gerbino's Pasticceria"
      }
    },
    {
      "type": "node",
      "id": 303071820,
      "lat": -27.4631058,
      "lon": 153.0411664,
      "tags": {
        "amenity": "restaurant",
        "cuisine": "nepalese",
        "name": "Himalayan Cafe"
      }
    },
    {
      "type": "node",
      "id": 303071823,
      "lat": -27.4624562,
      "lon": 153.0398182,
      "tags": {
        "amenity": "pub",
        "name": "Brunswick Hotel",
        "opening_hours": "Su 10:00-24:00; Mo 10:00-01:00; Tu-We 10:00-02:30; Th-Sa 10:00-03:00",
        "website": "https://www.thebrunswickhotel.com.au/"
      }
    },
    {
      "type": "node",
      "id": 303071833,
      "lat": -27.4632864,
      "lon": 153.0414718,
      "tags": {
        "amenity": "fast_food",
        "cuisine": "kebab",
        "name": "Barbekü"
      }
    },
    {
      "type": "node",
      "id": 303071839,
      "lat": -27.4631662,
      "lon": 153.0415966,
      "tags": {
        "amenity": "fast_food",
        "cuisine": "thai",
        "name": "Krua E-San"
      }
    },
    {
      "type": "node",
      "id": 303071853,
      "lat": -27.4632269,
      "lon": 153.0415402,
      "tags": {
        "amenity": "restaurant",
        "brand": "Pizza Hut",
        "brand:wikidata": "Q191615",
        "brand:wikipedia": "en:Pizza Hut",
        "cuisine": "pizza",
        "name": "Pizza Hut"
      }
    },
    {
      "type": "node",
      "id": 303071870,
      "lat": -27.4683635,
      "lon": 153.048087,
      "tags": {
        "amenity": "restaurant",
        "name": "The Fish Cafe"
      }
    },
    {
      "type": "node",
      "id": 303071877,
      "lat": -27.4684049,
      "lon": 153.0479528,
      "tags": {
        "addr:housenumber": "938",
        "addr:street": "Brunswick Street",
        "amenity": "cafe",
        "name": "MK Café"
      }
    },
    {
      "type": "node",
      "id": 303271161,
      "lat": -27.4700334,
      "lon": 153.043149,
      "tags": {
        "amenity": "restaurant",
        "name": "Vine Restaurant",
        "website": "https://www.vinerestaurant.com.au/"
      }
    },
    {
      "type": "node",
      "id": 307012413,
      "lat": -27.4778609,
      "lon": 153.0223818,
      "tags": {
        "amenity": "fast_food",
        "name": "Oakberry Açai"
      }
    },
    {
      "type": "node",
      "id": 307020309,
      "lat": -27.4775764,
      "lon": 153.029749,
      "tags": {
        "amenity": "cafe",
        "cuisine": "coffee_shop",
        "name": "Lady Harriet's Bar and Kitchen",
        "operator": "Aroma Cafe",
        "outdoor_seating": "yes",
        "smoking": "no",
        "takeaway": "yes",
        "wheelchair": "yes"
      }
    },
    {
      "type": "node",
      "id": 307562165,
      "lat": -27.4069917,
      "lon": 152.9911133,
      "tags": {
        "amenity": "pub",
        "name": "O'Aces Club"
      }
    },
    {
      "type": "node",
      "id": 308451758,
      "lat": -27.4678229,
      "lon": 153.1924266,
      "tags": {
        "amenity": "cafe",
        "cuisine": "fish_and_chips",
        "name": "Lota Takeaway"
      }
    },
    {
      "type": "node",
      "id": 310508165,
      "lat": -27.4698207,
      "lon": 153.0252521,
      "tags": {
        "air_conditioning": "yes",
        "amenity": "fast_food",
        "brand": "Hungry Jack's",
        "brand:wikidata": "Q3036373",
        "brand:wikipedia": "en:Hungry Jack's",
        "check_date": "2025-05-14",
        "cuisine": "burger",
        "delivery": "no",
        "diet:vegan": "yes",
        "diet:vegetarian": "yes",
        "drive_through": "no",
        "indoor_seating": "yes",
        "name": "Hungry Jack's",
        "opening_hours": "24/7",
        "outdoor_seating": "no",
        "smoking": "no",
        "takeaway": "yes",
        "toilets:wheelchair": "no",
        "wheelchair": "limited"
      }
    },
    {
      "type": "node",
      "id": 311248577,
      "lat": -27.4451085,
      "lon": 152.9515957,
      "tags": {
        "amenity": "fast_food",
        "brand": "Subway",
        "brand:wikidata": "Q244457",
        "brand:wikipedia": "en:Subway (restaurant)",
        "cuisine": "sandwich",
        "diet:vegetarian": "yes",
        "name": "Subway",
        "takeaway": "yes"
      }
    },
    {
      "type": "node",
      "id": 311432087,
      "lat": -27.5502916,
      "lon": 152.9362866,
      "tags": {
        "alt_name": "Kentucky Fried Chicken",
        "amenity": "fast_food",
        "brand": "KFC",
        "brand:wikidata": "Q524757",
        "brand:wikipedia": "en:KFC",
        "cuisine": "chicken",
        "name": "KFC",
        "takeaway": "yes"
      }
    },
    {
      "type": "node",
      "id": 311432091,
      "lat": -27.5507148,
      "lon": 152.9362449,
      "tags": {
        "amenity": "fast_food",
        "brand": "Red Rooster",
        "brand:wikidata": "Q376466",
        "brand:wikipedia": "en:Red Rooster",
        "cuisine": "chicken",
        "name": "Red Rooster",
        "takeaway": "yes"
      }
    },
    {
      "type": "node",
      "id": 311872674,
      "lat": -20.3450146,
      "lon": 148.9492319,
      "tags": {
        "addr:street": "Front Street",
        "amenity": "pub",
        "name": "Marina Tavern"
      }
    },
    {
      "type": "node",
      "id": 311874785,
      "lat": -20.3456354,
      "lon": 148.956024,
      "tags": {
        "amenity": "bar",
        "name": "Verandah Bar"
      }
    },
    {
      "type": "node",
      "id": 315255142,
      "lat": -27.4659452,
      "lon": 153.0128484,
      "tags": {
        "addr:housenumber": "5",
        "addr:street": "Petrie Terrace",
        "amenity": "restaurant",
        "indoor_seating": "yes",
        "name": "Krabby's Crab Boil",
        "outdoor_seating": "yes"
      }
    },
    {
      "type": "node",
      "id": 316735149,
      "lat": -27.47707,
      "lon": 153.03592,
      "tags": {
        "amenity": "fast_food",
        "name": "Boomerang Snack Bar"
      }
    },
    {
      "type": "node",
      "id": 316736559,
      "lat": -27.4534426,
      "lon": 153.0142863,
      "tags": {
        "addr:housenumber": "57",
        "addr:postcode": "4059",
        "addr:state": "QLD",
        "addr:street": "Musk Avenue",
        "addr:suburb": "Kelvin Grove",
        "air_conditioning": "yes",
        "amenity": "cafe",
        "cuisine": "coffee_shop",
        "diet:vegan": "yes",
        "diet:vegetarian": "yes",
        "indoor_seating": "yes",
        "internet_access": "no",
        "name": "The Boys House of Coffee",
        "opening_hours": "Mo-Fr 07:00-15:00; Sa 06:30-13:00",
        "outdoor_seating": "yes",
        "payment:credit_cards": "yes",
        "payment:debit_cards": "yes",
        "phone": "+61 7 3832 2822",
        "wheelchair": "yes"
      }
    },
    {
      "type": "node",
      "id": 316913841,
      "lat": -27.4580691,
      "lon": 153.0328677,
      "tags": {
        "amenity": "restaurant",
        "cuisine": "vietnamese",
        "name": "The Vietnamese Restaurant",
        "opening_hours": "Tu-Th,Su 17:30-21:00, Fr,Sa 17:30-21:00, Sa 12:00-14:30"
      }
    },
    {
      "type": "node",
      "id": 317494496,
      "lat": -27.3457177,
      "lon": 152.9660306,
      "tags": {
        "amenity": "pub",
        "name": "Albany Creek Tavern"
      }
    },
    {
      "type": "node",
      "id": 318625190,
      "lat": -27.4637525,
      "lon": 153.0504662,
      "tags": {
        "addr:housenumber": "26",
        "addr:postcode": "4005",
        "addr:street": "Gray Street",
        "addr:suburb": "New Farm",
        "amenity": "restaurant",
        "cuisine": "italian",
        "name": "Casa Italia",
        "phone": "+61 7 3358 4150"
      }
    },
    {
      "type": "node",
      "id": 319439965,
      "lat": -27.3309456,
      "lon": 153.0269226,
      "tags": {
        "amenity": "fast_food",
        "brand": "McDonald's",
        "brand:wikidata": "Q38076",
        "cuisine": "burger",
        "drive_through": "yes",
        "name": "McDonald's",
        "takeaway": "yes"
      }
    },
    {
      "type": "node",
      "id": 320411631,
      "lat": -27.4806068,
      "lon": 153.0047848,
      "tags": {
        "addr:housenumber": "305",
        "addr:postcode": "4101",
        "addr:street": "Montague Road",
        "amenity": "cafe",
        "indoor_seating": "yes",
        "name": "West End Park Cafe",
        "opening_hours": "Mo-Fr 06:00-14:00; Sa 07:00-13:00",
        "outdoor_seating": "yes",
        "source": "Survey",
        "website": "https://www.westendparkcafe.com.au/",
        "wheelchair": "yes"
      }
    },
    {
      "type": "node",
      "id": 322430210,
      "lat": -27.2404051,
      "lon": 153.0168524,
      "tags": {
        "amenity": "pub",
        "level": "0",
        "name": "North Lakes Tavern",
        "wheelchair": "yes"
      }
    },
    {
      "type": "node",
      "id": 322786158,
      "lat": -27.3599557,
      "lon": 153.0174541,
      "tags": {
        "amenity": "restaurant",
        "name": "Hog's Breath"
      }
    },
    {
      "type": "node",
      "id": 322786160,
      "lat": -27.3600653,
      "lon": 153.0174255,
      "tags": {
        "amenity": "restaurant",
        "name": "Fasta Pasta"
      }
    },
    {
      "type": "node",
      "id": 323117483,
      "lat": -27.3072727,
      "lon": 152.9894613,
      "tags": {
        "amenity": "restaurant",
        "name": "Jayliano's"
      }
    },
    {
      "type": "node",
      "id": 324209403,
      "lat": -27.5453847,
      "lon": 153.0400078,
      "tags": {
        "amenity": "pub",
        "name": "Salisbury Hotel Motel",
        "tourism": "motel"
      }
    },
    {
      "type": "node",
      "id": 324209484,
      "lat": -27.5430839,
      "lon": 153.0107871,
      "tags": {
        "addr:housenumber": "1337",
        "addr:street": "Ipswich Road",
        "addr:suburb": "Rocklea",
        "amenity": "pub",
        "name": "Rocklea Hotel"
      }
    },
    {
      "type": "node",
      "id": 324565042,
      "lat": -27.4527026,
      "lon": 153.0041326,
      "tags": {
        "amenity": "restaurant",
        "cuisine": "italian",
        "name": "Olivettos",
        "source": "survey"
      }
    },
    {
      "type": "node",
      "id": 324565046,
      "lat": -27.4532849,
      "lon": 153.004076,
      "tags": {
        "addr:housenumber": "22",
        "addr:postcode": "4059",
        "addr:street": "Enoggera Terrace",
        "addr:suburb": "Red Hill",
        "amenity": "fast_food",
        "contact:facebook": "https://www.facebook.com/RedHillSeafood",
        "cuisine": "seafood",
        "name": "Red Hill Seafoods",
        "opening_hours": "Tu-Th 09:30-20:00; Fr 09:30-20:30; Sa 11:30-20:00; Su 16:00-20:00",
        "phone": "+61 7 3369 1424",
        "takeaway": "yes"
      }
    },
    {
      "type": "node",
      "id": 327099805,
      "lat": -27.4654142,
      "lon": 152.9970636,
      "tags": {
        "amenity": "fast_food",
        "brand": "Grill'd",
        "brand:wikidata": "Q18165852",
        "cuisine": "burger",
        "name": "Grill'd",
        "takeaway": "yes"
      }
    },
    {
      "type": "node",
      "id": 327099817,
      "lat": -27.4664336,
      "lon": 152.9970741,
      "tags": {
        "amenity": "cafe",
        "name": "Rosalie Market Cafe"
      }
    },
    {
      "type": "node",
      "id": 327099837,
      "lat": -27.4660539,
      "lon": 152.9975289,
      "tags": {
        "amenity": "restaurant",
        "name": "Thai Terrace"
      }
    },
    {
      "type": "node",
      "id": 327099899,
      "lat": -27.4616647,
      "lon": 153.0143539,
      "tags": {
        "amenity": "restaurant",
        "name": "Tibetan Kitchen",
        "opening_hours": "Tu-Su 17:00-21:30"
      }
    },
    {
      "type": "node",
      "id": 332817232,
      "lat": -27.4457696,
      "lon": 152.9936098,
      "tags": {
        "amenity": "restaurant",
        "brand": "Pizza Hut",
        "brand:wikidata": "Q191615",
        "brand:wikipedia": "en:Pizza Hut",
        "cuisine": "pizza",
        "name": "Pizza Hut",
        "source": "survey"
      }
    },
    {
      "type": "node",
      "id": 332958026,
      "lat": -27.4544431,
      "lon": 153.1860272,
      "tags": {
        "amenity": "restaurant"
      }
    },
    {
      "type": "node",
      "id": 332958033,
      "lat": -27.4544285,
      "lon": 153.1859053,
      "tags": {
        "amenity": "fast_food"
      }
    },
    {
      "type": "node",
      "id": 332958038,
      "lat": -27.4544236,
      "lon": 153.185764,
      "tags": {
        "amenity": "cafe"
      }
    },
    {
      "type": "node",
      "id": 332958043,
      "lat": -27.4541264,
      "lon": 153.18649,
      "tags": {
        "amenity": "restaurant",
        "name": "Sea Vibes",
        "website": "https://seavibes.com.au/"
      }
    },
    {
      "type": "node",
      "id": 342699475,
      "lat": -27.3455196,
      "lon": 152.9649472,
      "tags": {
        "amenity": "fast_food",
        "brand": "McDonald's",
        "brand:wikidata": "Q38076",
        "brand:wikipedia": "en:McDonald's",
        "cuisine": "burger",
        "name": "McDonald's",
        "takeaway": "yes"
      }
    },
    {
      "type": "node",
      "id": 342699488,
      "lat": -27.3453313,
      "lon": 152.9644821,
      "tags": {
        "alt_name": "Kentucky Fried Chicken",
        "amenity": "fast_food",
        "brand": "KFC",
        "brand:wikidata": "Q524757",
        "brand:wikipedia": "en:KFC",
        "cuisine": "chicken",
        "name": "KFC",
        "takeaway": "yes"
      }
    },
    {
      "type": "node",
      "id": 342701781,
      "lat": -27.3460962,
      "lon": 152.964981,
      "tags": {
        "amenity": "fast_food",
        "brand": "Subway",
        "brand:wikidata": "Q244457",
        "brand:wikipedia": "en:Subway (restaurant)",
        "cuisine": "sandwich",
        "name": "Subway",
        "takeaway": "yes"
      }
    },
    {
      "type": "node",
      "id": 344809241,
      "lat": -27.4420724,
      "lon": 153.040101,
      "tags": {
        "air_conditioning": "yes",
        "amenity": "cafe",
        "check_date:opening_hours": "2026-05-21",
        "diet:vegetarian": "yes",
        "indoor_seating": "yes",
        "name": "Merlo",
        "opening_hours": "Mo-Fr 05:30-16:00; Sa,Su 06:00-16:00",
        "outdoor_seating": "yes",
        "smoking": "no"
      }
    },
    {
      "type": "node",
      "id": 347214438,
      "lat": -27.5053253,
      "lon": 153.0582383,
      "tags": {
        "amenity": "restaurant",
        "cuisine": "indian",
        "indoor_seating": "yes",
        "name": "Desi Fuels",
        "outdoor_seating": "yes"
      }
    },
    {
      "type": "node",
      "id": 355185644,
      "lat": -27.40153,
      "lon": 153.01467,
      "tags": {
        "amenity": "cafe",
        "name": "Cafe Urbano"
      }
    },
    {
      "type": "node",
      "id": 355543143,
      "lat": -27.4864453,
      "lon": 153.0334066,
      "tags": {
        "amenity": "pub",
        "name": "Chalk Hotel"
      }
    },
    {
      "type": "node",
      "id": 355543251,
      "lat": -27.4919214,
      "lon": 153.0352752,
      "tags": {
        "amenity": "pub",
        "brewery": "XXXX Gold",
        "name": "Norman Hotel",
        "wheelchair": "limited"
      }
    },
    {
      "type": "node",
      "id": 359311396,
      "lat": -27.428298,
      "lon": 153.0474506,
      "tags": {
        "amenity": "restaurant",
        "cuisine": "thai",
        "diet:vegan": "yes",
        "diet:vegetarian": "yes",
        "indoor_seating": "yes",
        "name": "Suk-Kho Thai",
        "opening_hours": "Mo-Fr 15:30-21:00; Sa,Su 12:00-21:00",
        "outdoor_seating": "sidewalk",
        "wheelchair": "yes"
      }
    },
    {
      "type": "node",
      "id": 360076957,
      "lat": -25.9121828,
      "lon": 153.0046496,
      "tags": {
        "amenity": "pub",
        "name": "Sleepy Lagoon"
      }
    },
    {
      "type": "node",
      "id": 360117767,
      "lat": -27.4975354,
      "lon": 153.0723805,
      "tags": {
        "addr:housenumber": "54",
        "addr:street": "Martha Street",
        "amenity": "cafe",
        "landuse": "retail",
        "name": "Florence"
      }
    },
    {
      "type": "node",
      "id": 360148000,
      "lat": -27.4947128,
      "lon": 153.0565005,
      "tags": {
        "amenity": "pub",
        "check_date": "2026-01-04",
        "name": "Coorparoo R.S.L. and Community Club"
      }
    },
    {
      "type": "node",
      "id": 363001761,
      "lat": -27.6090368,
      "lon": 153.111425,
      "tags": {
        "amenity": "pub",
        "name": "Hotel HQ",
        "source": "survey"
      }
    },
    {
      "type": "node",
      "id": 363425794,
      "lat": -27.4864957,
      "lon": 153.034376,
      "tags": {
        "amenity": "cafe",
        "name": "Coffee @ The Gabba"
      }
    },
    {
      "type": "node",
      "id": 363425811,
      "lat": -27.4865316,
      "lon": 153.0346032,
      "tags": {
        "amenity": "fast_food",
        "name": "Red Box Canteen + Catering"
      }
    },
    {
      "type": "node",
      "id": 363425824,
      "lat": -27.4865822,
      "lon": 153.0349236,
      "tags": {
        "amenity": "fast_food",
        "check_date": "2026-02-23",
        "cuisine": "japanese",
        "name": "Oishii"
      }
    },
    {
      "type": "node",
      "id": 363425848,
      "lat": -27.4885302,
      "lon": 153.0381802,
      "tags": {
        "addr:housenumber": "54",
        "addr:postcode": "4102",
        "addr:state": "QLD",
        "addr:street": "Logan Road",
        "addr:suburb": "Woolloongabba",
        "amenity": "cafe",
        "name": "Brown Dog Cafe",
        "outdoor_seating": "yes"
      }
    },
    {
      "type": "node",
      "id": 363426018,
      "lat": -27.49079,
      "lon": 153.04176,
      "tags": {
        "amenity": "cafe",
        "name": "Cab Rank Cafe"
      }
    },
    {
      "type": "node",
      "id": 363426051,
      "lat": -27.48714,
      "lon": 153.04056,
      "tags": {
        "amenity": "restaurant",
        "name": "Maxim's Chinese and Thai"
      }
    },
    {
      "type": "node",
      "id": 364039717,
      "lat": -27.4325661,
      "lon": 153.019738,
      "tags": {
        "amenity": "ice_cream",
        "name": "Lick"
      }
    },
    {
      "type": "node",
      "id": 364039720,
      "lat": -27.4326232,
      "lon": 153.0196809,
      "tags": {
        "amenity": "cafe",
        "name": "Alcove"
      }
    },
    {
      "type": "node",
      "id": 364039722,
      "lat": -27.4326152,
      "lon": 153.0194441,
      "tags": {
        "amenity": "restaurant",
        "name": "Citron"
      }
    },
    {
      "type": "node",
      "id": 364039726,
      "lat": -27.4324555,
      "lon": 153.0194958,
      "tags": {
        "amenity": "cafe",
        "name": "Di Vita"
      }
    },
    {
      "type": "node",
      "id": 364039728,
      "lat": -27.4323355,
      "lon": 153.0195202,
      "tags": {
        "amenity": "restaurant",
        "cuisine": "vietnamese",
        "name": "Ming Ming's Kitchen",
        "website": "https://www.mingmingskitchen.com.au/"
      }
    },
    {
      "type": "node",
      "id": 364039733,
      "lat": -27.4321832,
      "lon": 153.0194318,
      "tags": {
        "amenity": "fast_food",
        "name": "D'lish Fish"
      }
    },
    {
      "type": "node",
      "id": 364039735,
      "lat": -27.4320924,
      "lon": 153.0193708,
      "tags": {
        "amenity": "restaurant",
        "check_date": "2026-02-15",
        "name": "Thai Kitchen"
      }
    },
    {
      "type": "node",
      "id": 364039739,
      "lat": -27.4320522,
      "lon": 153.0193382,
      "tags": {
        "brand": "Brumby's Bakeries",
        "brand:wikidata": "Q4978794",
        "name": "Brumby's Bakeries",
        "shop": "bakery"
      }
    },
    {
      "type": "node",
      "id": 364039741,
      "lat": -27.4320128,
      "lon": 153.0192719,
      "tags": {
        "amenity": "cafe",
        "name": "Cafe Conti"
      }
    },
    {
      "type": "node",
      "id": 364039746,
      "lat": -27.4321423,
      "lon": 153.019758,
      "tags": {
        "addr:housenumber": "99",
        "addr:postcode": "4051",
        "addr:state": "QLD",
        "addr:street": "Kedron Brook Road",
        "addr:suburb": "Wilston",
        "amenity": "pub",
        "name": "Frankie Brown"
      }
    },
    {
      "type": "node",
      "id": 364039752,
      "lat": -27.4325365,
      "lon": 153.0200419,
      "tags": {
        "amenity": "restaurant",
        "name": "Fuse Bistro"
      }
    },
    {
      "type": "node",
      "id": 364039759,
      "lat": -27.4330227,
      "lon": 153.0200279,
      "tags": {
        "amenity": "restaurant",
        "name": "Mr Wongs Chinese Restaurant & Takeaway"
      }
    },
    {
      "type": "node",
      "id": 364051717,
      "lat": -26.7461317,
      "lon": 150.627221,
      "tags": {
        "amenity": "cafe",
        "brand": "Foodworks",
        "brand:wikidata": "Q5465579",
        "name": "Foodworks",
        "outdoor_seating": "yes",
        "shop": "supermarket;gas"
      }
    },
    {
      "type": "node",
      "id": 364202749,
      "lat": -27.5779705,
      "lon": 152.9725236,
      "tags": {
        "amenity": "pub",
        "name": "Inala Hotel"
      }
    },
    {
      "type": "node",
      "id": 364337943,
      "lat": -27.5957216,
      "lon": 152.9880212,
      "tags": {
        "amenity": "fast_food",
        "name": "Brodie's"
      }
    },
    {
      "type": "node",
      "id": 365206880,
      "lat": -27.4660163,
      "lon": 153.0284104,
      "tags": {
        "amenity": "cafe",
        "check_date:opening_hours": "2025-11-07",
        "name": "Bar Metzo",
        "opening_hours": "Mo-Fr 06:00-15:30",
        "outdoor_seating": "no"
      }
    },
    {
      "type": "node",
      "id": 365207057,
      "lat": -27.467163,
      "lon": 153.0277376,
      "tags": {
        "amenity": "bar",
        "check_date": "2026-02-16",
        "name": "Isles Lane",
        "opening_hours": "Mo-Fr 07:00-20:00"
      }
    },
    {
      "type": "node",
      "id": 366803694,
      "lat": -27.6681,
      "lon": 152.9203984,
      "tags": {
        "amenity": "fast_food",
        "brand": "Subway",
        "brand:wikidata": "Q244457",
        "cuisine": "sandwich",
        "name": "Subway",
        "opening_hours": "Mo-Fr 06:30-21:00; Sa,Su 08:00-21:00",
        "takeaway": "yes",
        "website": "https://www.subway.com/en-AU"
      }
    },
    {
      "type": "node",
      "id": 375807944,
      "lat": -27.4110205,
      "lon": 152.9741552,
      "tags": {
        "amenity": "cafe",
        "check_date:opening_hours": "2026-01-21",
        "contact:facebook": "https://www.facebook.com/vietnameseavachatcafe/",
        "cuisine": "vietnamese",
        "name": "Av-A-Chat Cafe",
        "opening_hours:signed": "no"
      }
    },
    {
      "type": "node",
      "id": 375807963,
      "lat": -27.4112257,
      "lon": 152.9742739,
      "tags": {
        "amenity": "restaurant",
        "name": "Zanetti's",
        "opening_hours": "Mo-Su 11:30-20:00"
      }
    },
    {
      "type": "node",
      "id": 375807974,
      "lat": -27.4113844,
      "lon": 152.974244,
      "tags": {
        "check_date:opening_hours": "2026-01-21",
        "name": "Triple B Bakery",
        "opening_hours:signed": "no",
        "shop": "bakery"
      }
    },
    {
      "type": "node",
      "id": 375807987,
      "lat": -27.4115125,
      "lon": 152.9742192,
      "tags": {
        "amenity": "restaurant",
        "name": "Jinsusa Japanese Cuisine",
        "opening_hours": "Mo-Sa 11:00-14:30,16:30-20:00"
      }
    },
    {
      "type": "node",
      "id": 375808087,
      "lat": -27.4121752,
      "lon": 152.9745187,
      "tags": {
        "amenity": "restaurant",
        "name": "Gum Do Chinese Restaurant"
      }
    },
    {
      "type": "node",
      "id": 386614830,
      "lat": -24.1135924,
      "lon": 152.7170166,
      "tags": {
        "amenity": "restaurant",
        "name": "Lagoon Bar and Dining"
      }
    },
    {
      "type": "node",
      "id": 387154554,
      "lat": -27.433954,
      "lon": 153.0712187,
      "tags": {
        "amenity": "fast_food",
        "name": "Hamilton Seafood Take-away"
      }
    },
    {
      "type": "node",
      "id": 387154572,
      "lat": -27.4382604,
      "lon": 153.0642489,
      "tags": {
        "amenity": "restaurant",
        "name": "Vagelis"
      }
    },
    {
      "type": "node",
      "id": 389631264,
      "lat": -27.4227418,
      "lon": 153.0703506,
      "tags": {
        "addr:housenumber": "116",
        "addr:street": "Manson Road",
        "amenity": "cafe",
        "name": "The Brass",
        "opening_hours": "Mo-Fr 06:00-14:00; Sa,Su 07:00-14:00",
        "outdoor_seating": "yes",
        "payment:coins": "yes",
        "payment:mastercard": "yes",
        "payment:notes": "yes",
        "payment:visa": "yes",
        "payment:visa_debit": "yes",
        "phone": "+61 7 3113 3636",
        "website": "https://www.facebook.com/profile.php?id=100093799565639"
      }
    },
    {
      "type": "node",
      "id": 389631271,
      "lat": -27.4230994,
      "lon": 153.072953,
      "tags": {
        "amenity": "fast_food"
      }
    },
    {
      "type": "node",
      "id": 389631278,
      "lat": -27.4185009,
      "lon": 153.067107,
      "tags": {
        "amenity": "restaurant",
        "cuisine": "italian",
        "name": "The Hamptons"
      }
    },
    {
      "type": "node",
      "id": 389631285,
      "lat": -27.4203296,
      "lon": 153.0636895,
      "tags": {
        "amenity": "cafe",
        "name": "Suite Commuter Coffee"
      }
    },
    {
      "type": "node",
      "id": 389631341,
      "lat": -27.4226209,
      "lon": 153.0636117,
      "tags": {
        "addr:housenumber": "5",
        "addr:street": "Zillman Road",
        "addr:unit": "1",
        "amenity": "restaurant",
        "cuisine": "thai",
        "name": "Thai Naramit",
        "opening_hours": "Mo-Su 11:00-15:00,17:00-24:00",
        "outdoor_seating": "yes",
        "payment:coins": "yes",
        "payment:mastercard": "yes",
        "payment:notes": "yes",
        "payment:visa": "yes",
        "payment:visa_debit": "yes",
        "phone": "+61 7 3268 5146",
        "takeaway": "yes",
        "website": "https://www.thainaramit.com.au/"
      }
    },
    {
      "type": "node",
      "id": 392153405,
      "lat": -27.486571,
      "lon": 153.0633102,
      "tags": {
        "addr:housenumber": "112",
        "addr:postcode": "4170",
        "addr:state": "QLD",
        "addr:street": "Bennetts Road",
        "addr:suburb": "Norman Park",
        "addr:unit": "3",
        "amenity": "restaurant",
        "check_date": "2026-01-28",
        "cuisine": "thai",
        "name": "Red Galanga Asian Cuisine",
        "opening_hours": "Tu-Th,Su 17:00-21:00; Fr,Sa 17:00-21:30"
      }
    },
    {
      "type": "node",
      "id": 395265645,
      "lat": -23.8339504,
      "lon": 151.2539066,
      "tags": {
        "amenity": "cafe"
      }
    },
    {
      "type": "node",
      "id": 398193104,
      "lat": -27.4645789,
      "lon": 153.0318193,
      "tags": {
        "amenity": "restaurant",
        "name": "La Vue"
      }
    },
    {
      "type": "node",
      "id": 401025858,
      "lat": -27.4878193,
      "lon": 153.049326,
      "tags": {
        "amenity": "cafe",
        "check_date": "2024-05-26",
        "name": "Café63",
        "website": "https://cafe63.com.au/"
      }
    },
    {
      "type": "node",
      "id": 401025876,
      "lat": -27.488147,
      "lon": 153.0476715,
      "tags": {
        "addr:housenumber": "994",
        "addr:postcode": "4169",
        "addr:state": "QLD",
        "addr:street": "Stanley Street East",
        "addr:suburb": "East Brisbane",
        "amenity": "pub",
        "check_date": "2024-05-26",
        "name": "Lord Stanley Hotel",
        "website": "http://www.lordstanleyhotel.com.au"
      }
    },
    {
      "type": "node",
      "id": 404771201,
      "lat": -27.4510706,
      "lon": 153.0590134,
      "tags": {
        "addr:housenumber": "152",
        "addr:postcode": "4171",
        "addr:street": "Oxford Street",
        "addr:suburb": "Bulimba",
        "amenity": "pub",
        "name": "Oxford 152",
        "outdoor_seating": "yes",
        "smoking": "outside",
        "website": "https://www.oxford152.com.au/"
      }
    },
    {
      "type": "node",
      "id": 409401966,
      "lat": -27.4348637,
      "lon": 153.0797627,
      "tags": {
        "amenity": "fast_food",
        "name": "Eagles in the Park Takeaway"
      }
    },
    {
      "type": "node",
      "id": 409529625,
      "lat": -27.4451992,
      "lon": 152.9526383,
      "tags": {
        "addr:housenumber": "1000",
        "addr:postcode": "4061",
        "addr:state": "QLD",
        "addr:street": "Waterworks Road",
        "addr:suburb": "The Gap",
        "addr:unit": "34",
        "amenity": "bar",
        "name": "Blind Tiger"
      }
    },
    {
      "type": "node",
      "id": 415514997,
      "lat": -27.4613953,
      "lon": 153.0307601,
      "tags": {
        "amenity": "fast_food",
        "name": "The Hub's Wok",
        "opening_hours": "Mo-Fr 11:30-15:00,16:30-21:00; Sa,Su 16:30-21:00"
      }
    },
    {
      "type": "node",
      "id": 415516889,
      "lat": -27.4728639,
      "lon": 153.0591303,
      "tags": {
        "amenity": "restaurant",
        "check_date": "2024-08-01",
        "name": "Chang Rai Thai"
      }
    },
    {
      "type": "node",
      "id": 416768157,
      "lat": -27.4670958,
      "lon": 153.0646939,
      "tags": {
        "amenity": "restaurant",
        "name": "Simply Dishy",
        "source": "survey"
      }
    },
    {
      "type": "node",
      "id": 416770495,
      "lat": -27.4679419,
      "lon": 153.0727861,
      "tags": {
        "amenity": "restaurant",
        "check_date": "2024-07-19",
        "cuisine": "indian",
        "name": "Curryville",
        "source": "survey"
      }
    },
    {
      "type": "node",
      "id": 416770501,
      "lat": -27.4678201,
      "lon": 153.0729578,
      "tags": {
        "name": "Boulevard Bakery",
        "shop": "bakery",
        "source": "survey"
      }
    },
    {
      "type": "node",
      "id": 416770503,
      "lat": -27.4683313,
      "lon": 153.0721236,
      "tags": {
        "addr:housenumber": "621",
        "addr:postcode": "4170",
        "addr:state": "QLD",
        "addr:street": "Wynnum Road",
        "addr:suburb": "Morningside",
        "addr:unit": "6",
        "amenity": "ice_cream",
        "name": "Knead Gelato",
        "opening_hours": "We,Th 11:00-20:00; Fr,Sa 10:00-21:00"
      }
    },
    {
      "type": "node",
      "id": 416770509,
      "lat": -27.468995,
      "lon": 153.0903689,
      "tags": {
        "amenity": "fast_food",
        "brand": "Noodle Box",
        "brand:wikidata": "Q7049671",
        "brand:wikipedia": "en:Noodle Box",
        "cuisine": "noodle",
        "name": "Noodle Box",
        "takeaway": "yes",
        "website": "https://www.noodlebox.com.au/"
      }
    },
    {
      "type": "node",
      "id": 418516457,
      "lat": -29.1195576,
      "lon": 153.432151,
      "tags": {
        "amenity": "restaurant",
        "name": "Evans Head RSL Club",
        "opening_hours": "Su-Th 10:00-22:00, Fr,Sa 10:00-24:00",
        "source": "survey"
      }
    },
    {
      "type": "node",
      "id": 419999903,
      "lat": -27.0877157,
      "lon": 151.6429748,
      "tags": {
        "amenity": "cafe",
        "name": "Rimfire Winery"
      }
    },
    {
      "type": "node",
      "id": 421435110,
      "lat": -27.470765,
      "lon": 153.0969835,
      "tags": {
        "amenity": "fast_food",
        "brand": "Subway",
        "brand:wikidata": "Q244457",
        "brand:wikipedia": "en:Subway (restaurant)",
        "check_date": "2024-06-05",
        "cuisine": "sandwich",
        "full_name": "Subway Cannon Hill",
        "name": "Subway",
        "takeaway": "yes",
        "website": "https://www.subway.com.au/"
      }
    },
    {
      "type": "node",
      "id": 421435111,
      "lat": -27.4692419,
      "lon": 153.0967658,
      "tags": {
        "amenity": "fast_food",
        "branch": "Cannon Hill",
        "brand": "Red Rooster",
        "brand:wikidata": "Q376466",
        "brand:wikipedia": "en:Red Rooster",
        "cuisine": "chicken",
        "name": "Red Rooster",
        "source": "local_knowledge",
        "takeaway": "yes",
        "website": "https://www.redrooster.com.au/"
      }
    },
    {
      "type": "node",
      "id": 428238092,
      "lat": -27.5208777,
      "lon": 152.9755875,
      "tags": {
        "addr:housenumber": "327",
        "addr:street": "Honour Avenue",
        "addr:suburb": "Graceville",
        "addr:unit": "1",
        "amenity": "cafe",
        "cuisine": "coffee_shop",
        "name": "Honour Espresso"
      }
    },
    {
      "type": "node",
      "id": 428238093,
      "lat": -27.5212983,
      "lon": 152.9758206,
      "tags": {
        "amenity": "restaurant",
        "cuisine": "italian",
        "name": "Il Viale"
      }
    },
    {
      "type": "node",
      "id": 428992533,
      "lat": -27.4507597,
      "lon": 153.0558478,
      "tags": {
        "amenity": "fast_food",
        "name": "Thai Legend"
      }
    },
    {
      "type": "node",
      "id": 428992534,
      "lat": -27.4506612,
      "lon": 153.0555847,
      "tags": {
        "addr:city": "Brisbane",
        "addr:housenumber": "74",
        "addr:postcode": "4171",
        "addr:street": "Oxford Street",
        "addr:suburb": "Bulimba",
        "amenity": "fast_food",
        "name": "Oxford Fish n Chips",
        "source": "Brisbane City Council",
        "source:date": "2018-12-14"
      }
    },
    {
      "type": "node",
      "id": 430545378,
      "lat": -27.5033642,
      "lon": 153.0474847,
      "tags": {
        "amenity": "fast_food",
        "brand": "Subway",
        "brand:wikidata": "Q244457",
        "brand:wikipedia": "en:Subway (restaurant)",
        "cuisine": "sandwich",
        "name": "Subway",
        "takeaway": "yes"
      }
    },
    {
      "type": "node",
      "id": 433482154,
      "lat": -27.4914417,
      "lon": 153.0407456,
      "tags": {
        "amenity": "fast_food",
        "name": "Sam's Takeaway and Catering"
      }
    },
    {
      "type": "node",
      "id": 434292590,
      "lat": -27.4547133,
      "lon": 153.0117259,
      "tags": {
        "amenity": "cafe",
        "name": "Fortitude Coffee Roasters",
        "old_name": "Miss India",
        "website": "https://www.fortituderoasters.com/"
      }
    },
    {
      "type": "node",
      "id": 436831676,
      "lat": -27.437481,
      "lon": 153.0022736,
      "tags": {
        "addr:housenumber": "166",
        "addr:postcode": "4060",
        "addr:state": "QLD",
        "addr:street": "Ashgrove Avenue",
        "addr:suburb": "Ashgrove",
        "name": "Gerbino's",
        "phone": "+61 7 3356 7913",
        "shop": "bakery",
        "website": "https://gerbinos.com.au/"
      }
    },
    {
      "type": "node",
      "id": 437981620,
      "lat": -27.5155512,
      "lon": 153.0389472,
      "tags": {
        "amenity": "fast_food",
        "cuisine": "fish_and_chips",
        "delivery": "no",
        "diet:vegetarian": "no",
        "indoor_seating": "yes",
        "name": "The Pink Salmon",
        "opening_hours": "Tu-Su,PH 09:00-20:00",
        "outdoor_seating": "veranda",
        "phone": "+61 7 3892 2522",
        "smoking": "no",
        "takeaway": "yes",
        "wheelchair": "yes"
      }
    },
    {
      "type": "node",
      "id": 437981622,
      "lat": -27.5155488,
      "lon": 153.0391137,
      "tags": {
        "check_date:opening_hours": "2025-12-18",
        "indoor_seating": "no",
        "name": "Ekibin Bakery",
        "opening_hours": "Mo-Su,PH 05:00-18:00",
        "outdoor_seating": "sidewalk",
        "shop": "bakery",
        "wheelchair": "yes"
      }
    },
    {
      "type": "node",
      "id": 439974059,
      "lat": -27.5074701,
      "lon": 153.0503304,
      "tags": {
        "addr:housenumber": "575",
        "addr:postcode": "4120",
        "addr:state": "QLD",
        "addr:street": "Logan Road",
        "addr:suburb": "Greenslopes",
        "addr:unit": "1",
        "amenity": "restaurant",
        "cuisine": "indian",
        "name": "Miss India",
        "outdoor_seating": "no",
        "source": "survey",
        "takeaway": "yes"
      }
    },
    {
      "type": "node",
      "id": 439983290,
      "lat": -27.5199657,
      "lon": 153.040706,
      "tags": {
        "air_conditioning": "yes",
        "amenity": "cafe",
        "indoor_seating": "yes",
        "name": "BNE Baracca",
        "outdoor_seating": "yes",
        "smoking": "no",
        "takeaway": "yes",
        "toilets": "yes",
        "toilets:access": "customers",
        "toilets:wheelchair": "designated",
        "wheelchair": "yes"
      }
    },
    {
      "type": "node",
      "id": 440110966,
      "lat": -26.2571928,
      "lon": 150.046897,
      "tags": {
        "amenity": "cafe",
        "disused:amenity": "yes",
        "name": "Guluguba Cafe (Closed)",
        "note": "20OCT appears closed. unswept, locked, but still large sign on roof. 20AUG22 still closed, unkept equipment inside"
      }
    },
    {
      "type": "node",
      "id": 440540002,
      "lat": -27.4788543,
      "lon": 153.0707289,
      "tags": {
        "amenity": "restaurant",
        "check_date:opening_hours": "2024-04-12",
        "cuisine": "thai",
        "name": "Chan Di Thai",
        "opening_hours:signed": "no"
      }
    },
    {
      "type": "node",
      "id": 441011986,
      "lat": -27.3843822,
      "lon": 153.0129644,
      "tags": {
        "amenity": "restaurant",
        "name": "Jothi Palace",
        "note": "indian"
      }
    },
    {
      "type": "node",
      "id": 441037826,
      "lat": -27.5540673,
      "lon": 151.9440844,
      "tags": {
        "amenity": "fast_food",
        "name": "Bernys Fish & Chips"
      }
    },
    {
      "type": "node",
      "id": 441037829,
      "lat": -27.5545601,
      "lon": 151.9339324,
      "tags": {
        "amenity": "fast_food",
        "name": "Brunch Lunch Munch"
      }
    },
    {
      "type": "node",
      "id": 441038752,
      "lat": -27.5933063,
      "lon": 151.9471955,
      "tags": {
        "alt_name": "Kentucky Fried Chicken",
        "amenity": "fast_food",
        "brand": "KFC",
        "brand:wikidata": "Q524757",
        "brand:wikipedia": "en:KFC",
        "cuisine": "chicken",
        "name": "KFC",
        "takeaway": "yes",
        "website": "https://www.kfc.com.au/"
      }
    },
    {
      "type": "node",
      "id": 441038755,
      "lat": -27.5931304,
      "lon": 151.9469515,
      "tags": {
        "amenity": "cafe",
        "name": "Sleepless City Coffee Roasters on Stenner"
      }
    },
    {
      "type": "node",
      "id": 441038759,
      "lat": -27.5931684,
      "lon": 151.947099,
      "tags": {
        "amenity": "ice_cream",
        "brand": "Baskin-Robbins",
        "brand:wikidata": "Q584601",
        "brand:wikipedia": "en:Baskin-Robbins",
        "cuisine": "ice_cream",
        "name": "Baskin-Robbins"
      }
    },
    {
      "type": "node",
      "id": 441052333,
      "lat": -27.5846487,
      "lon": 151.9495706,
      "tags": {
        "amenity": "fast_food",
        "description": "Super Rooster South Toowoomba",
        "name": "Super Rooster",
        "opening_hours": "Mo-Fr 10:30-20:00; Sa, Su 10:00-20:00",
        "phone": "+61 7 4636 4303",
        "website": "https://superrooster.com.au/"
      }
    },
    {
      "type": "node",
      "id": 441052334,
      "lat": -27.5844584,
      "lon": 151.9495789,
      "tags": {
        "amenity": "fast_food",
        "brand": "Guzman y Gomez",
        "brand:wikidata": "Q23019759",
        "cuisine": "mexican",
        "name": "Guzman y Gomez",
        "takeaway": "yes"
      }
    },
    {
      "type": "node",
      "id": 441052335,
      "lat": -27.5847416,
      "lon": 151.9499751,
      "tags": {
        "amenity": "fast_food",
        "cuisine": "ice_cream",
        "name": "Cold Rock Ice Cream",
        "website": "https://www.coldrock.com.au/"
      }
    },
    {
      "type": "node",
      "id": 441511831,
      "lat": -27.1865306,
      "lon": 151.2659078,
      "tags": {
        "amenity": "fast_food",
        "name": "Darby's Hotbread - Windmill"
      }
    },
    {
      "type": "node",
      "id": 442752171,
      "lat": -28.6308746,
      "lon": 151.9538417,
      "tags": {
        "amenity": "fast_food",
        "brand": "McDonald's",
        "brand:wikidata": "Q38076",
        "brand:wikipedia": "en:McDonald's",
        "cuisine": "burger",
        "name": "McDonald's",
        "opening_hours": "24/7",
        "takeaway": "yes"
      }
    },
    {
      "type": "node",
      "id": 442954339,
      "lat": -26.121407,
      "lon": 149.9609663,
      "tags": {
        "addr:housenumber": "17",
        "addr:postcode": "4419",
        "addr:state": "QLD",
        "addr:street": "Lawton Street",
        "addr:suburb": "Wandoan",
        "amenity": "pub",
        "name": "Juandah Hotel - Great Northern Brewing Co",
        "website": "https://juandahhotel.com.au/"
      }
    },
    {
      "type": "node",
      "id": 443526240,
      "lat": -27.6250124,
      "lon": 153.1294026,
      "tags": {
        "amenity": "restaurant",
        "cuisine": "chinese",
        "name": "Kam Koon",
        "source": "Yahoo"
      }
    },
    {
      "type": "node",
      "id": 444186571,
      "lat": -27.3775689,
      "lon": 153.0937959,
      "tags": {
        "amenity": "fast_food",
        "brand": "Red Rooster",
        "brand:wikidata": "Q376466",
        "cuisine": "chicken",
        "name": "Red Rooster",
        "takeaway": "yes",
        "website": "https://www.redrooster.com.au/"
      }
    },
    {
      "type": "node",
      "id": 444186572,
      "lat": -27.3776639,
      "lon": 153.0939228,
      "tags": {
        "amenity": "fast_food",
        "brand": "Krispy Kreme",
        "brand:wikidata": "Q1192805",
        "brand:wikipedia": "en:Krispy Kreme",
        "cuisine": "donut",
        "name": "Krispy Kreme",
        "takeaway": "yes"
      }
    },
    {
      "type": "node",
      "id": 444186573,
      "lat": -27.3773634,
      "lon": 153.0940971,
      "tags": {
        "amenity": "fast_food",
        "name": "UTK"
      }
    },
    {
      "type": "node",
      "id": 444399026,
      "lat": -27.3042569,
      "lon": 151.4920551,
      "tags": {
        "amenity": "pub",
        "name": "Bowenville Hotel"
      }
    },
    {
      "type": "node",
      "id": 445923805,
      "lat": -27.5124471,
      "lon": 153.0311785,
      "tags": {
        "amenity": "fast_food",
        "brand": "Subway",
        "brand:wikidata": "Q244457",
        "brand:wikipedia": "en:Subway (restaurant)",
        "check_date": "2026-03-20",
        "check_date:diet:vegan": "2024-09-23",
        "check_date:diet:vegetarian": "2024-09-23",
        "check_date:opening_hours": "2026-03-20",
        "check_date:smoking": "2024-09-16",
        "cuisine": "sandwich",
        "diet:vegan": "yes",
        "diet:vegetarian": "yes",
        "drive_through": "no",
        "indoor_seating": "yes",
        "level": "0",
        "name": "Subway",
        "opening_hours": "Mo-Su 08:00-12:00",
        "outdoor_seating": "sidewalk",
        "smoking": "no",
        "source": "survey",
        "takeaway": "yes",
        "wheelchair": "yes"
      }
    },
    {
      "type": "node",
      "id": 446105756,
      "lat": -26.1915176,
      "lon": 152.6575906,
      "tags": {
        "amenity": "fast_food",
        "brand": "Red Rooster",
        "brand:wikidata": "Q376466",
        "cuisine": "chicken",
        "name": "Red Rooster",
        "takeaway": "yes"
      }
    },
    {
      "type": "node",
      "id": 448169168,
      "lat": -28.0020842,
      "lon": 153.4309261,
      "tags": {
        "amenity": "fast_food",
        "brand": "McDonald's",
        "brand:wikidata": "Q38076",
        "brand:wikipedia": "en:McDonald's",
        "cuisine": "burger",
        "drive_through": "no",
        "name": "McDonald's",
        "takeaway": "yes",
        "wheelchair": "yes"
      }
    },
    {
      "type": "node",
      "id": 448173365,
      "lat": -28.1985352,
      "lon": 153.1874205,
      "tags": {
        "amenity": "cafe",
        "bar": "yes",
        "contact:phone": "+61 7 5533 3622",
        "indoor_seating": "yes",
        "internet_access": "wlan",
        "internet_access:fee": "no",
        "name": "Binna Burra Teahouse",
        "opening_hours": "Mo-su 08:00-15:00",
        "outdoor_seating": "yes",
        "smoking": "no",
        "takeaway": "yes",
        "toilets": "yes",
        "website": "https://www.binnaburralodge.com.au/tea-house/"
      }
    },
    {
      "type": "node",
      "id": 451518230,
      "lat": -27.4311407,
      "lon": 153.0918121,
      "tags": {
        "amenity": "fast_food",
        "name": "Eagles Takeaway & Carvery"
      }
    },
    {
      "type": "node",
      "id": 451624973,
      "lat": -27.384245,
      "lon": 152.9429745,
      "tags": {
        "name": "Fernlands Patisserie",
        "operator": "Private",
        "shop": "bakery"
      }
    },
    {
      "type": "node",
      "id": 452918848,
      "lat": -27.4267385,
      "lon": 153.0192231,
      "tags": {
        "amenity": "cafe",
        "name": "Shot Espresso"
      }
    },
    {
      "type": "node",
      "id": 454350481,
      "lat": -27.3060365,
      "lon": 153.0509013,
      "tags": {
        "amenity": "restaurant",
        "cuisine": "italian"
      }
    },
    {
      "type": "node",
      "id": 454719475,
      "lat": -27.409137,
      "lon": 152.9583859,
      "tags": {
        "amenity": "fast_food",
        "cuisine": "fish_and_chips",
        "name": "Keperra Fish & Chips"
      }
    },
    {
      "type": "node",
      "id": 454743760,
      "lat": -28.8623616,
      "lon": 153.4369393,
      "tags": {
        "amenity": "cafe",
        "name": "Sommerville House With No Steps"
      }
    },
    {
      "type": "node",
      "id": 455621276,
      "lat": -27.4810594,
      "lon": 153.0360216,
      "tags": {
        "addr:housenumber": "706",
        "addr:postcode": "4169",
        "addr:street": "Main Street",
        "addr:suburb": "Kangaroo Point",
        "amenity": "pub",
        "name": "Pineapple Hotel",
        "source": "survey"
      }
    },
    {
      "type": "node",
      "id": 455621292,
      "lat": -27.4792306,
      "lon": 153.0416108,
      "tags": {
        "addr:city": "Brisbane",
        "addr:housenumber": "3",
        "addr:postcode": "4169",
        "addr:street": "Lytton Road",
        "addr:suburb": "East Brisbane",
        "amenity": "pub",
        "brewery": "yes",
        "food": "yes",
        "name": "Shafston Hotel",
        "opening_hours": "Mo-Su 10:00-04:00",
        "smoking": "isolated",
        "source": "survey;Brisbane City Council",
        "source:date": "2018-12-14"
      }
    },
    {
      "type": "node",
      "id": 456029459,
      "lat": -27.4789484,
      "lon": 153.0707045,
      "tags": {
        "amenity": "cafe",
        "check_date": "2026-02-08",
        "name": "Rabbit Hole Cafe",
        "opening_hours": "Mo-Su 07:00-14:00"
      }
    },
    {
      "type": "node",
      "id": 456713084,
      "lat": -27.5112937,
      "lon": 153.0312789,
      "tags": {
        "amenity": "cafe",
        "bar": "yes",
        "check_date:opening_hours": "2025-09-26",
        "cuisine": "coffee_shop;burger;sandwich;patisserie",
        "diet:vegan": "yes",
        "diet:vegetarian": "yes",
        "indoor_seating": "yes",
        "level": "0",
        "name": "Little Clive",
        "opening_hours": "06:30-14:00",
        "opening_hours:signed": "no",
        "outdoor_seating": "veranda",
        "smoking": "no",
        "source": "survey",
        "takeaway": "yes",
        "wheelchair": "yes"
      }
    },
    {
      "type": "node",
      "id": 456713100,
      "lat": -27.5099339,
      "lon": 153.0329244,
      "tags": {
        "amenity": "cafe",
        "check_date:opening_hours": "2025-09-04",
        "diet:vegan": "no",
        "diet:vegetarian": "yes",
        "indoor_seating": "yes",
        "name": "La Semilla",
        "opening_hours": "Mo-Su 05:00-15:00",
        "opening_hours:signed": "no",
        "outdoor_seating": "no",
        "takeaway": "yes",
        "wheelchair": "yes"
      }
    },
    {
      "type": "node",
      "id": 456713126,
      "lat": -27.5109602,
      "lon": 153.0323298,
      "tags": {
        "check_date:opening_hours": "2026-03-24",
        "email": "TheAnnerleyKitchen@gmail.com",
        "indoor_seating": "no",
        "name": "The Annerley Kitchen",
        "opening_hours": "Mo-Fr 06:00-14:00; Sa 06:00-13:30",
        "outdoor_seating": "no",
        "phone": "+61 7 3848 4701",
        "shop": "bakery",
        "source": "survey",
        "takeaway": "only",
        "wheelchair": "limited"
      }
    },
    {
      "type": "node",
      "id": 456713166,
      "lat": -27.518607,
      "lon": 153.0299273,
      "tags": {
        "amenity": "restaurant",
        "check_date:opening_hours": "2026-03-24",
        "cuisine": "vietnamese",
        "diet:vegan": "yes",
        "diet:vegetarian": "yes",
        "indoor_seating": "yes",
        "name": "Café Ô-Mai",
        "opening_hours": "Tu-Fr 06:30-15:00; Sa,Su 07:00-14:00",
        "outdoor_seating": "sidewalk",
        "smoking": "no",
        "wheelchair": "yes"
      }
    },
    {
      "type": "node",
      "id": 456713171,
      "lat": -27.5185274,
      "lon": 153.0297231,
      "tags": {
        "amenity": "cafe",
        "check_date:opening_hours": "2025-10-20",
        "cuisine": "coffee_shop",
        "diet:vegan": "no",
        "diet:vegetarian": "yes",
        "indoor_seating": "yes",
        "name": "A Mano Café",
        "opening_hours": "Mo-Fr 05:30-14:00; Sa,Su 06:30-14:00",
        "opening_hours:signed": "no",
        "outdoor_seating": "sidewalk",
        "source": "survey",
        "wheelchair": "no"
      }
    },
    {
      "type": "node",
      "id": 457773723,
      "lat": -27.4448869,
      "lon": 153.0202714,
      "tags": {
        "amenity": "cafe",
        "name": "Cafe Gia"
      }
    },
    {
      "type": "node",
      "id": 461665490,
      "lat": -23.4635927,
      "lon": 150.3998282,
      "tags": {
        "amenity": "pub",
        "name": "Kabra Hotel"
      }
    },
    {
      "type": "node",
      "id": 462178550,
      "lat": -23.4340322,
      "lon": 150.4545641,
      "tags": {
        "addr:housenumber": "2",
        "addr:postcode": "4702",
        "addr:state": "QLD",
        "addr:street": "Old Capricorn Highway",
        "addr:suburb": "Gracemere",
        "amenity": "pub",
        "name": "Gracemere Hotel",
        "wheelchair": "yes"
      }
    },
    {
      "type": "node",
      "id": 466942562,
      "lat": -27.4333536,
      "lon": 153.5436495,
      "tags": {
        "addr:housenumber": "15",
        "addr:postcode": "4183",
        "addr:state": "QLD",
        "addr:street": "East Coast Road",
        "addr:suburb": "Point Lookout",
        "addr:unit": "Shop 2",
        "amenity": "fast_food",
        "cuisine": "fish_and_chips",
        "name": "Fishes at the Point",
        "opening_hours": "Mo-Su 08:00-20:00",
        "website": "http://www.fishesatthepoint.com.au"
      }
    },
    {
      "type": "node",
      "id": 466942563,
      "lat": -27.4268711,
      "lon": 153.5299235,
      "tags": {
        "alt_name": "Straddie Pub",
        "amenity": "pub",
        "name": "Stradbroke Island Beach Hotel",
        "website": "https://www.stradbrokehotel.com.au/"
      }
    },
    {
      "type": "node",
      "id": 466943625,
      "lat": -27.4330281,
      "lon": 153.5435952,
      "tags": {
        "amenity": "ice_cream",
        "name": "Oceanic Gelati Bar"
      }
    },
    {
      "type": "node",
      "id": 473347203,
      "lat": -27.5212825,
      "lon": 153.0195376,
      "tags": {
        "alt_name": "Evo Espresso",
        "amenity": "cafe",
        "check_date:opening_hours": "2025-11-13",
        "cuisine": "coffee",
        "diet:vegan": "yes",
        "diet:vegetarian": "yes",
        "indoor_seating": "yes",
        "name": "Evo Cafe",
        "opening_hours:signed": "no",
        "outdoor_seating": "patio",
        "source": "survey",
        "wheelchair": "yes"
      }
    },
    {
      "type": "node",
      "id": 473424503,
      "lat": -19.2942228,
      "lon": 146.7223893,
      "tags": {
        "amenity": "bar",
        "name": "The Avenues Tavern"
      }
    },
    {
      "type": "node",
      "id": 474365272,
      "lat": -27.4784676,
      "lon": 153.0229374,
      "tags": {
        "amenity": "ice_cream",
        "brand": "Ben & Jerry's",
        "brand:wikidata": "Q816412",
        "cuisine": "ice_cream",
        "name": "Ben & Jerry's"
      }
    },
    {
      "type": "node",
      "id": 474365273,
      "lat": -27.4784022,
      "lon": 153.0228998,
      "tags": {
        "amenity": "ice_cream",
        "check_date:opening_hours": "2024-04-13",
        "name": "Happy Pops",
        "opening_hours:signed": "no"
      }
    },
    {
      "type": "node",
      "id": 474365274,
      "lat": -27.47772,
      "lon": 153.02233,
      "tags": {
        "amenity": "ice_cream",
        "indoor_seating": "no",
        "name": "New Zealand Natural",
        "outdoor_seating": "yes"
      }
    },
    {
      "type": "node",
      "id": 474365276,
      "lat": -27.4776018,
      "lon": 153.0221873,
      "tags": {
        "amenity": "fast_food",
        "check_date": "2024-08-04",
        "name": "Boost"
      }
    },
    {
      "type": "node",
      "id": 474365278,
      "lat": -27.4774804,
      "lon": 153.0220993,
      "tags": {
        "amenity": "fast_food",
        "indoor_seating": "no",
        "name": "Cosmos Cafe",
        "outdoor_seating": "yes"
      }
    },
    {
      "type": "node",
      "id": 474365279,
      "lat": -27.477543,
      "lon": 153.0221447,
      "tags": {
        "amenity": "fast_food",
        "cuisine": "pizza",
        "name": "Brooklyn Slice"
      }
    },
    {
      "type": "node",
      "id": 474424359,
      "lat": -27.5892078,
      "lon": 151.9479886,
      "tags": {
        "addr:housenumber": "825",
        "addr:street": "Ruthven Street",
        "amenity": "fast_food",
        "brand": "McDonald's",
        "brand:wikidata": "Q38076",
        "brand:wikipedia": "en:McDonald's",
        "cuisine": "burger",
        "drive_through": "yes",
        "name": "McDonald's",
        "opening_hours": "24/7",
        "phone": "+61 7 4636 1600",
        "takeaway": "yes"
      }
    },
    {
      "type": "node",
      "id": 474424360,
      "lat": -27.5897768,
      "lon": 151.9478898,
      "tags": {
        "addr:housenumber": "833",
        "addr:street": "Ruthven Street",
        "amenity": "fast_food",
        "brand": "Red Rooster",
        "brand:wikidata": "Q376466",
        "brand:wikipedia": "en:Red Rooster",
        "cuisine": "chicken",
        "drive_through": "yes",
        "name": "Red Rooster",
        "phone": "+61 7 4636 1388",
        "takeaway": "yes"
      }
    },
    {
      "type": "node",
      "id": 475576674,
      "lat": -27.5441156,
      "lon": 151.9252345,
      "tags": {
        "amenity": "fast_food",
        "brand": "Hungry Jack's",
        "brand:wikidata": "Q3036373",
        "cuisine": "burger",
        "name": "Hungry Jack's",
        "takeaway": "yes",
        "website": "https://www.hungryjacks.com.au/"
      }
    },
    {
      "type": "node",
      "id": 475576675,
      "lat": -27.544073,
      "lon": 151.924858,
      "tags": {
        "amenity": "fast_food",
        "brand": "Subway",
        "brand:wikidata": "Q244457",
        "cuisine": "sandwich",
        "name": "Subway",
        "takeaway": "yes",
        "website": "https://www.subway.com/en-AU"
      }
    },
    {
      "type": "node",
      "id": 481796946,
      "lat": -27.452899,
      "lon": 153.1886606,
      "tags": {
        "amenity": "restaurant",
        "name": "Manly Harbour Boat Club"
      }
    },
    {
      "type": "node",
      "id": 481797514,
      "lat": -27.4530264,
      "lon": 153.1886718,
      "tags": {
        "amenity": "bar",
        "name": "Manly Harbour Boat Club"
      }
    },
    {
      "type": "node",
      "id": 488744900,
      "lat": -27.5038297,
      "lon": 153.0346812,
      "tags": {
        "addr:housenumber": "336",
        "addr:street": "Ipswich Road",
        "addr:unit": "1",
        "amenity": "restaurant",
        "cuisine": "pizza",
        "name": "Pizza Rella",
        "opening_hours": "Mo-Su 16:30-20:30",
        "phone": "+61 7 3899 6941",
        "source": "survey",
        "website": "https://pizzarella.com.au/"
      }
    },
    {
      "type": "node",
      "id": 489487649,
      "lat": -27.4739128,
      "lon": 153.019469,
      "tags": {
        "amenity": "cafe",
        "name": "The Bistro",
        "wheelchair": "yes"
      }
    },
    {
      "type": "node",
      "id": 489487676,
      "lat": -27.4741014,
      "lon": 153.0190342,
      "tags": {
        "amenity": "cafe",
        "name": "Grey Street Cafe"
      }
    },
    {
      "type": "node",
      "id": 491065304,
      "lat": -27.4507741,
      "lon": 153.040286,
      "tags": {
        "amenity": "fast_food",
        "name": "Valley Cafe & Takeaway"
      }
    },
    {
      "type": "node",
      "id": 494599469,
      "lat": -27.4575279,
      "lon": 153.0334261,
      "tags": {
        "amenity": "pub",
        "name": "The Elephant & Wheelbarrow"
      }
    },
    {
      "type": "node",
      "id": 494599470,
      "lat": -27.4560701,
      "lon": 153.0348513,
      "tags": {
        "amenity": "pub",
        "check_date": "2025-02-08",
        "contact:facebook": "https://www.facebook.com/TheWickham",
        "contact:instagram": "https://www.instagram.com/thewickham/",
        "lgbtq": "primary",
        "name": "The Wickham",
        "website": "https://www.thewickham.com.au/"
      }
    },
    {
      "type": "node",
      "id": 495878061,
      "lat": -27.2560549,
      "lon": 153.0915932,
      "tags": {
        "amenity": "fast_food",
        "cuisine": "seafood",
        "name": "Fish 'n' Chips"
      }
    },
    {
      "type": "node",
      "id": 495958754,
      "lat": -27.0314092,
      "lon": 153.1486426,
      "tags": {
        "amenity": "restaurant",
        "name": "Pacific Harbour Golf Club"
      }
    },
    {
      "type": "node",
      "id": 499720714,
      "lat": -27.5304209,
      "lon": 153.0421832,
      "tags": {
        "name": "Tarragindi Hot Bread",
        "shop": "bakery"
      }
    },
    {
      "type": "node",
      "id": 506095560,
      "lat": -27.550352,
      "lon": 151.9438309,
      "tags": {
        "amenity": "pub",
        "name": "Gowrie Road Hotel"
      }
    },
    {
      "type": "node",
      "id": 514315290,
      "lat": -27.4436519,
      "lon": 153.0087716,
      "tags": {
        "addr:housenumber": "29",
        "addr:postcode": "4059",
        "addr:state": "QLD",
        "addr:street": "Bishop Street",
        "addr:suburb": "Kelvin Grove",
        "amenity": "cafe",
        "name": "Cafe Cortado",
        "outdoor_seating": "yes"
      }
    },
    {
      "type": "node",
      "id": 519362260,
      "lat": -27.1942728,
      "lon": 153.11172,
      "tags": {
        "amenity": "fast_food"
      }
    },
    {
      "type": "node",
      "id": 519717726,
      "lat": -27.2767537,
      "lon": 150.4586267,
      "tags": {
        "addr:housenumber": "35",
        "addr:postcode": "4421",
        "addr:state": "QLD",
        "addr:street": "Day Street",
        "addr:suburb": "Tara",
        "amenity": "pub",
        "name": "Commercial Hotel Tara",
        "phone": "+61 7 4665 3214",
        "tourism": "hotel;motel",
        "website": "https://www.commercialhoteltara.com/"
      }
    },
    {
      "type": "node",
      "id": 519730022,
      "lat": -27.276836,
      "lon": 150.4593988,
      "tags": {
        "amenity": "cafe",
        "name": "Tara Cafe"
      }
    },
    {
      "type": "node",
      "id": 520654631,
      "lat": -27.2733989,
      "lon": 150.4507171,
      "tags": {
        "amenity": "pub",
        "name": "Tara Hotel Motel"
      }
    },
    {
      "type": "node",
      "id": 526589318,
      "lat": -27.6623967,
      "lon": 153.175804,
      "tags": {
        "amenity": "fast_food",
        "brand": "Subway",
        "brand:wikidata": "Q244457",
        "brand:wikipedia": "en:Subway (restaurant)",
        "cuisine": "sandwich",
        "name": "Subway",
        "takeaway": "yes",
        "website": "https://www.subway.com.au/"
      }
    },
    {
      "type": "node",
      "id": 526589319,
      "lat": -27.6634006,
      "lon": 153.1753393,
      "tags": {
        "amenity": "fast_food",
        "cuisine": "pizza",
        "name": "Mario's Pizza"
      }
    },
    {
      "type": "node",
      "id": 526589325,
      "lat": -27.6631424,
      "lon": 153.1766009,
      "tags": {
        "alt_name": "Kentucky Fried Chicken",
        "amenity": "fast_food",
        "brand": "KFC",
        "brand:wikidata": "Q524757",
        "brand:wikipedia": "en:KFC",
        "cuisine": "chicken",
        "name": "KFC",
        "takeaway": "yes"
      }
    },
    {
      "type": "node",
      "id": 526866537,
      "lat": -27.5361328,
      "lon": 151.937353,
      "tags": {
        "amenity": "fast_food"
      }
    },
    {
      "type": "node",
      "id": 531571359,
      "lat": -27.4684295,
      "lon": 153.0197365,
      "tags": {
        "amenity": "cafe",
        "name": "CBD Kitchen"
      }
    },
    {
      "type": "node",
      "id": 533982351,
      "lat": -27.6673511,
      "lon": 153.1389949,
      "tags": {
        "amenity": "pub",
        "name": "Meadowbrook Hotel"
      }
    },
    {
      "type": "node",
      "id": 542897379,
      "lat": -27.4695796,
      "lon": 153.0698222,
      "tags": {
        "amenity": "restaurant",
        "name": "Morningside Thai"
      }
    },
    {
      "type": "node",
      "id": 542897382,
      "lat": -27.4693254,
      "lon": 153.0699351,
      "tags": {
        "amenity": "restaurant",
        "name": "Miss India"
      }
    },
    {
      "type": "node",
      "id": 542897398,
      "lat": -27.4689874,
      "lon": 153.0699976,
      "tags": {
        "amenity": "cafe",
        "name": "Thynne Road Deli & Cafe"
      }
    },
    {
      "type": "node",
      "id": 542897427,
      "lat": -27.4654286,
      "lon": 153.0645097,
      "tags": {
        "check_date": "2024-08-01",
        "name": "Hawthorne Hot Bread & Cake",
        "shop": "bakery"
      }
    },
    {
      "type": "node",
      "id": 563684696,
      "lat": -27.3545692,
      "lon": 153.4193725,
      "tags": {
        "amenity": "pub",
        "name": "The Gutter Bar"
      }
    },
    {
      "type": "node",
      "id": 567357888,
      "lat": -27.6087774,
      "lon": 151.869719,
      "tags": {
        "amenity": "fast_food",
        "cuisine": "pizza",
        "name": "Westy's Pizza"
      }
    },
    {
      "type": "node",
      "id": 567845595,
      "lat": -27.6213202,
      "lon": 153.3679187,
      "tags": {
        "addr:housenumber": "2",
        "addr:postcode": "4184",
        "addr:state": "QLD",
        "addr:street": "Gordon Road",
        "addr:suburb": "Macleay Island",
        "amenity": "restaurant",
        "club": "yes",
        "name": "Bay Islands Golf Club",
        "website": "https://macleayislandgolfclub.com.au/events/restaurant/"
      }
    },
    {
      "type": "node",
      "id": 568336380,
      "lat": -27.6206121,
      "lon": 153.3614615,
      "tags": {
        "addr:housenumber": "121-131",
        "addr:postcode": "4184",
        "addr:street": "High Central Road",
        "addr:suburb": "Macleay Island",
        "addr:unit": "9",
        "air_conditioning": "no",
        "amenity": "fast_food",
        "contact:facebook": "https://www.facebook.com/mummaspizza/",
        "cuisine": "pizza",
        "delivery": "yes",
        "internet_access": "no",
        "name": "Mumma's Pizza Cafe",
        "opening_hours": "Mo-Su 16:30-20:30",
        "phone": "+61 7 2141 6099",
        "smoking": "no",
        "takeaway": "yes"
      }
    },
    {
      "type": "node",
      "id": 569863272,
      "lat": -27.6228216,
      "lon": 152.7607134,
      "tags": {
        "addr:housenumber": "52",
        "addr:postcode": "4305",
        "addr:street": "Warwick Road",
        "amenity": "fast_food",
        "cuisine": "chicken",
        "name": "Fatseas Chicken bar, Carvery & Hot Bread"
      }
    },
    {
      "type": "node",
      "id": 575564098,
      "lat": -27.4805872,
      "lon": 153.0071873,
      "tags": {
        "bulk_purchase": "yes",
        "level": "0",
        "name": "Mick's Nuts",
        "opening_hours": "Mo-Fr 07:00-18:00",
        "shop": "deli"
      }
    },
    {
      "type": "node",
      "id": 575565579,
      "lat": -27.4776327,
      "lon": 153.0132072,
      "tags": {
        "addr:housenumber": "10",
        "addr:postcode": "4101",
        "addr:street": "Browning Street",
        "addr:suburb": "South Brisbane",
        "amenity": "pub",
        "check_date": "2024-05-27",
        "name": "Hotel West End"
      }
    },
    {
      "type": "node",
      "id": 575570640,
      "lat": -27.4773254,
      "lon": 153.0124723,
      "tags": {
        "addr:housenumber": "53",
        "addr:postcode": "4101",
        "addr:street": "Mollison Street",
        "amenity": "restaurant",
        "indoor_seating": "yes",
        "name": "Gunshop Cafe",
        "opening_hours": "Su-Th 07:00-14:30; Fr-Sa 07:00-20:30",
        "outdoor_seating": "yes",
        "phone": "+61 7 3844 2241"
      }
    },
    {
      "type": "node",
      "id": 577403117,
      "lat": -27.4779876,
      "lon": 153.0127324,
      "tags": {
        "addr:housenumber": "80",
        "addr:postcode": "4101",
        "addr:street": "Boundary Street",
        "addr:suburb": "West End",
        "amenity": "cafe",
        "name": "Ugees Espresso",
        "opening_hours": "Mo-Fr 05:00-18:00; Sa 05:00-16:00; Su 06:30-15:00"
      }
    },
    {
      "type": "node",
      "id": 577508003,
      "lat": -27.5006391,
      "lon": 153.0767942,
      "tags": {
        "amenity": "cafe",
        "cuisine": "bubble_tea",
        "name": "Boba & Co"
      }
    },
    {
      "type": "node",
      "id": 577508006,
      "lat": -27.5007224,
      "lon": 153.0766735,
      "tags": {
        "amenity": "restaurant",
        "cuisine": "vietnamese",
        "name": "Pho Inn"
      }
    },
    {
      "type": "node",
      "id": 580881338,
      "lat": -27.4766068,
      "lon": 153.0138423,
      "tags": {
        "amenity": "restaurant",
        "check_date": "2026-06-01",
        "check_date:diet:vegan": "2026-06-01",
        "cuisine": "vietnamese;asian",
        "diet:vegan": "yes",
        "diet:vegetarian": "yes",
        "indoor_seating": "yes",
        "name": "West End Garden",
        "opening_hours": "PH,Mo-Su 17:00-22:00, Mo-Fr 11:30-14:30",
        "outdoor_seating": "no",
        "website": "https://www.westendgarden.com.au/",
        "wheelchair": "limited"
      }
    },
    {
      "type": "node",
      "id": 580881343,
      "lat": -27.4808157,
      "lon": 153.0117261,
      "tags": {
        "amenity": "cafe",
        "cuisine": "coffee_shop;thai",
        "delivery": "no",
        "level": "0",
        "name": "West End Coffeehouse",
        "opening_hours": "Mo-Fr 06:30-16:00, Sa 07:00-16:00",
        "outdoor_seating": "yes",
        "smoking": "no",
        "takeaway": "yes",
        "wheelchair": "limited"
      }
    },
    {
      "type": "node",
      "id": 580881361,
      "lat": -27.4753883,
      "lon": 153.0161255,
      "tags": {
        "amenity": "cafe",
        "name": "Era Cafe"
      }
    },
    {
      "type": "node",
      "id": 580881373,
      "lat": -27.4789796,
      "lon": 153.0122453,
      "tags": {
        "amenity": "pub",
        "check_date": "2026-04-05",
        "name": "The Boundary Hotel"
      }
    },
    {
      "type": "node",
      "id": 581811809,
      "lat": -26.6713151,
      "lon": 153.0479256,
      "tags": {
        "amenity": "restaurant",
        "name": "Harry's on Buderim"
      }
    },
    {
      "type": "node",
      "id": 585074767,
      "lat": -27.5068142,
      "lon": 153.0630732,
      "tags": {
        "amenity": "restaurant",
        "check_date:opening_hours": "2025-06-28",
        "cuisine": "indian",
        "diet:vegetarian": "yes",
        "indoor_seating": "yes",
        "name": "Sitar",
        "opening_hours:signed": "no",
        "outdoor_seating": "yes"
      }
    },
    {
      "type": "node",
      "id": 585074773,
      "lat": -27.5065792,
      "lon": 153.063558,
      "tags": {
        "amenity": "cafe",
        "name": "Flute"
      }
    },
    {
      "type": "node",
      "id": 585074775,
      "lat": -27.5065315,
      "lon": 153.0634857,
      "tags": {
        "name": "Cream Patisserie",
        "shop": "bakery"
      }
    },
    {
      "type": "node",
      "id": 585074779,
      "lat": -27.5064538,
      "lon": 153.0632976,
      "tags": {
        "amenity": "restaurant",
        "cuisine": "indian",
        "name": "Sultans Kitchen"
      }
    },
    {
      "type": "node",
      "id": 585074787,
      "lat": -27.5066289,
      "lon": 153.0636334,
      "tags": {
        "amenity": "fast_food",
        "cuisine": "seafood",
        "name": "Blue Ocean Seafood"
      }
    },
    {
      "type": "node",
      "id": 586051859,
      "lat": -27.4703409,
      "lon": 153.0257365,
      "tags": {
        "air_conditioning": "yes",
        "amenity": "cafe",
        "brand": "Starbucks",
        "brand:wikidata": "Q37158",
        "brand:wikipedia": "en:Starbucks",
        "cuisine": "coffee_shop",
        "diet:vegan": "yes",
        "diet:vegetarian": "yes",
        "indoor_seating": "yes",
        "level": "0",
        "name": "Starbucks",
        "official_name": "Starbucks Coffee",
        "opening_hours": "Su-Th 06:00-22:00, Fr,Sa 06:00-24:00",
        "outdoor_seating": "yes",
        "smoking": "no",
        "takeaway": "yes",
        "wheelchair": "yes"
      }
    },
    {
      "type": "node",
      "id": 586177810,
      "lat": -27.4670564,
      "lon": 153.0255215,
      "tags": {
        "amenity": "pub",
        "name": "Downunder Bar & Grill",
        "opening_hours": "Mo-Su 11:00-22:00+"
      }
    },
    {
      "type": "node",
      "id": 588396906,
      "lat": -26.3973692,
      "lon": 153.0444779,
      "tags": {
        "amenity": "fast_food",
        "name": "Lakeside Seafoods"
      }
    },
    {
      "type": "node",
      "id": 589527465,
      "lat": -27.6731265,
      "lon": 153.2116178,
      "tags": {
        "amenity": "cafe",
        "brand": "Zarraffa's Coffee",
        "brand:wikidata": "Q8066878",
        "brand:wikipedia": "en:Zarraffa's Coffee",
        "cuisine": "coffee_shop",
        "name": "Zarraffa's Coffee",
        "takeaway": "yes",
        "wheelchair": "yes"
      }
    },
    {
      "type": "node",
      "id": 590028016,
      "lat": -27.4078958,
      "lon": 153.047052,
      "tags": {
        "amenity": "cafe",
        "name": "Shambhala Espresso"
      }
    },
    {
      "type": "node",
      "id": 591590513,
      "lat": -27.4766771,
      "lon": 153.0123228,
      "tags": {
        "addr:housenumber": "79",
        "addr:postcode": "4101",
        "addr:street": "Boundary Street",
        "amenity": "restaurant",
        "cuisine": "thai",
        "name": "Siam Samrarn",
        "opening_hours": "Mo-Su 11:00-14:30, 17:00-22:00",
        "phone": "+61 7 3844 9091"
      }
    },
    {
      "type": "node",
      "id": 593236136,
      "lat": -27.4711349,
      "lon": 153.0152717,
      "tags": {
        "addr:housenumber": "48",
        "addr:postcode": "4101",
        "addr:street": "Montague Road",
        "addr:suburb": "South Brisbane",
        "amenity": "bar",
        "name": "It's Still a Secret",
        "note": "seems it has been inactive since April 2020",
        "opening_hours:signed": "no",
        "phone": "+61 7 3217 2061",
        "smoking": "no",
        "source": "survey"
      }
    },