{
  "elements": [
    {
      "type": "node",
      "id": 303688146,
      "lat": -42.886843,
      "lon": 147.331885,
      "tags": {
        "addr:housenumber": "39",
        "addr:postcode": "7004",
        "addr:state": "TAS",
        "addr:street": "Salamanca Place",
        "addr:suburb": "Battery Point",
        "amenity": "pub",
        "name": "The Whaler",
        "old_name": "Knopwoods Retreat",
        "opening_hours": "Su-Th 12:00-24:00; Fr-Sa 11:00-24:00",
        "website": "https://www.thewhaler.com.au/"
      }
    },
    {
      "type": "node",
      "id": 303688228,
      "lat": -42.8909788,
      "lon": 147.3350316,
      "tags": {
        "amenity": "pub",
        "name": "Shipwright's Arms Hotel"
      }
    },
    {
      "type": "node",
      "id": 319713189,
      "lat": -42.895524,
      "lon": 147.327421,
      "tags": {
        "amenity": "pub",
        "microbrewery": "no",
        "name": "Metz",
        "takeaway": "no",
        "wheelchair": "yes"
      }
    },
    {
      "type": "node",
      "id": 319714124,
      "lat": -42.8875249,
      "lon": 147.3324859,
      "tags": {
        "amenity": "cafe",
        "name": "San Churro",
        "phone": "+61 3 6295 4644",
        "website": "https://www.sanchurro.com/store/san-churro-salamanca/"
      }
    },
    {
      "type": "node",
      "id": 319714168,
      "lat": -42.8865882,
      "lon": 147.3308232,
      "tags": {
        "amenity": "pub",
        "name": "Irish Murphy's",
        "website": "http://hobart.irishmurphys.com.au",
        "wheelchair": "no"
      }
    },
    {
      "type": "node",
      "id": 320809254,
      "lat": -41.4402372,
      "lon": 147.1312857,
      "tags": {
        "addr:housenumber": "121 - 131",
        "addr:postcode": "7250",
        "addr:state": "TAS",
        "addr:street": "Paterson Street",
        "addr:suburb": "Launceston",
        "amenity": "pub",
        "name": "T.R.C. Hotel",
        "shop": "beverages"
      }
    },
    {
      "type": "node",
      "id": 320809500,
      "lat": -41.4344874,
      "lon": 147.1422559,
      "tags": {
        "amenity": "pub",
        "name": "Royal Oak Hotel"
      }
    },
    {
      "type": "node",
      "id": 320809543,
      "lat": -41.43994,
      "lon": 147.1344525,
      "tags": {
        "amenity": "pub",
        "name": "Irish Murphy's",
        "website": "theirish1835.com.au"
      }
    },
    {
      "type": "node",
      "id": 320812531,
      "lat": -41.2489936,
      "lon": 147.2174725,
      "tags": {
        "amenity": "pub",
        "name": "Lilydale Tavern"
      }
    },
    {
      "type": "node",
      "id": 320821245,
      "lat": -41.433703,
      "lon": 147.1385748,
      "tags": {
        "amenity": "pub",
        "name": "Lloyds Hotel"
      }
    },
    {
      "type": "node",
      "id": 320821270,
      "lat": -41.4340266,
      "lon": 147.1388631,
      "tags": {
        "addr:housenumber": "27",
        "addr:postcode": "7250",
        "addr:state": "TAS",
        "addr:street": "George Street",
        "addr:suburb": "Launceston",
        "amenity": "pub",
        "name": "The Commercial Hotel Launceston",
        "shop": "bookmaker"
      }
    },
    {
      "type": "node",
      "id": 320824265,
      "lat": -42.8792841,
      "lon": 147.3345459,
      "tags": {
        "amenity": "restaurant",
        "brand": "Hog's Breath Cafe",
        "brand:wikidata": "Q5876920",
        "cuisine": "steak_house",
        "name": "Hog's Breath Cafe",
        "phone": "+61 3 6236 9955",
        "vaccination": "emp",
        "website": "https://www.hogsbreath.com.au/location/hobart/"
      }
    },
    {
      "type": "node",
      "id": 321398773,
      "lat": -41.9278307,
      "lon": 147.4935764,
      "tags": {
        "brand": "Banjo's Bakery Cafe",
        "brand:wikidata": "Q105904686",
        "name": "Banjo's Bakery Cafe",
        "shop": "bakery",
        "website": "https://www.banjos.com.au/"
      }
    },
    {
      "type": "node",
      "id": 321411278,
      "lat": -42.1226143,
      "lon": 148.2844954,
      "tags": {
        "air_conditioning": "yes",
        "amenity": "cafe",
        "contact:facebook": "https://www.facebook.com/granitebakery/",
        "indoor_seating": "yes",
        "name": "Granite Freycinect",
        "opening_hours": "Mo-Sa 08:00-14:00; Su 08:00-13:00; Th-Sa 17:30-19:30",
        "outdoor_seating": "yes",
        "payment:credit_cards": "yes",
        "payment:debit_cards": "yes",
        "wheelchair": "limited"
      }
    },
    {
      "type": "node",
      "id": 321411349,
      "lat": -42.1225152,
      "lon": 148.2845555,
      "tags": {
        "amenity": "fast_food",
        "cuisine": "seafood"
      }
    },
    {
      "type": "node",
      "id": 321702372,
      "lat": -41.4409209,
      "lon": 147.1372639,
      "tags": {
        "addr:housenumber": "50",
        "addr:postcode": "7250",
        "addr:state": "TAS",
        "addr:street": "Wellington Street",
        "addr:suburb": "Launceston",
        "amenity": "pub",
        "contact:facebook": "https://www.facebook.com/CocknBullLaunceston",
        "name": "Cock 'n' Bull British Pub"
      }
    },
    {
      "type": "node",
      "id": 321702552,
      "lat": -41.4067052,
      "lon": 147.1327775,
      "tags": {
        "alt_name": "Kentucky Fried Chicken",
        "amenity": "fast_food",
        "brand": "KFC",
        "brand:wikidata": "Q524757",
        "brand:wikipedia": "en:KFC",
        "cuisine": "chicken",
        "name": "KFC",
        "takeaway": "yes"
      }
    },
    {
      "type": "node",
      "id": 321709796,
      "lat": -42.9033014,
      "lon": 147.3240426,
      "tags": {
        "amenity": "pub",
        "building:levels": "2",
        "name": "Uni Bar",
        "opening_hours": "Feb-Nov: Mo-Fr 08:30-14:30",
        "ref": "https://maps.utas.edu.au/d/poi/1000553750",
        "source": "Umaps"
      }
    },
    {
      "type": "node",
      "id": 324808781,
      "lat": -41.4373852,
      "lon": 147.1369268,
      "tags": {
        "addr:housenumber": "113",
        "addr:postcode": "7250",
        "addr:state": "TAS",
        "addr:street": "Charles Street",
        "addr:suburb": "Launceston",
        "amenity": "pub",
        "name": "Star Bar Cafe & Hotel",
        "opening_hours": "Mo-Th 11:00-24:00; Fr-Su 07:00-24:00",
        "website": "https://starbarcafeandhotel.com.au/"
      }
    },
    {
      "type": "node",
      "id": 324896700,
      "lat": -42.8746905,
      "lon": 147.3173628,
      "tags": {
        "amenity": "pub",
        "name": "Republic Bar & Cafe",
        "wheelchair": "limited"
      }
    },
    {
      "type": "node",
      "id": 324916901,
      "lat": -42.8809054,
      "lon": 147.3253333,
      "tags": {
        "addr:housenumber": "87",
        "addr:postcode": "7000",
        "addr:state": "TAS",
        "addr:street": "Bathurst Street",
        "addr:suburb": "Hobart",
        "amenity": "pub",
        "indoor_seating": "yes",
        "name": "New Sydney Hotel",
        "opening_hours": "Mo 12:00-22:00; Tu-Sa 12:00-00:00; Su 16:00-21:00",
        "outdoor_seating": "yes",
        "phone": "+61 3 6234 4516",
        "website": "https://www.newsydneyhotel.com.au/"
      }
    },
    {
      "type": "node",
      "id": 325597437,
      "lat": -41.1803983,
      "lon": 146.3504379,
      "tags": {
        "alt_name": "Kentucky Fried Chicken",
        "amenity": "fast_food",
        "brand": "KFC",
        "brand:wikidata": "Q524757",
        "brand:wikipedia": "en:KFC",
        "cuisine": "chicken",
        "name": "KFC",
        "operator": "kfc",
        "takeaway": "yes",
        "website": "https://www.kfc.com.au/"
      }
    },
    {
      "type": "node",
      "id": 331439367,
      "lat": -42.8952104,
      "lon": 147.3271149,
      "tags": {
        "amenity": "fast_food",
        "cuisine": "pizza",
        "name": "La Bella Pizza"
      }
    },
    {
      "type": "node",
      "id": 331439390,
      "lat": -42.8944609,
      "lon": 147.3260586,
      "tags": {
        "amenity": "restaurant",
        "check_date": "2022-12-17",
        "cuisine": "greek",
        "name": "Europa Greek Taverna",
        "opening_hours": "We-Sa 17:45-21:00+",
        "payment:cards": "no",
        "payment:credit_cards": "no",
        "payment:debit_cards": "no"
      }
    },
    {
      "type": "node",
      "id": 331439425,
      "lat": -42.8945512,
      "lon": 147.3261673,
      "tags": {
        "amenity": "fast_food",
        "cuisine": "takeaway",
        "name": "Mykonos",
        "opening_hours": "Mo-Th 07:00-22:00; Fr,Sa 07:00-24:00; Su 08:00-22:00",
        "outdoor_seating": "yes",
        "shop": "convenience"
      }
    },
    {
      "type": "node",
      "id": 331439494,
      "lat": -42.8948015,
      "lon": 147.3257702,
      "tags": {
        "addr:housenumber": "54",
        "addr:postcode": "7005",
        "addr:state": "TAS",
        "addr:street": "King Street",
        "addr:suburb": "Sandy Bay",
        "amenity": "restaurant",
        "cuisine": "chinese",
        "name": "Ju Kitchen",
        "opening_hours": "Mo-Su 12:00-21:00"
      }
    },
    {
      "type": "node",
      "id": 331440024,
      "lat": -42.8894928,
      "lon": 147.333872,
      "tags": {
        "amenity": "pub",
        "name": "Prince of Wales Hotel",
        "wheelchair": "no"
      }
    },
    {
      "type": "node",
      "id": 331440593,
      "lat": -42.8848872,
      "lon": 147.3309891,
      "tags": {
        "addr:housenumber": "1",
        "addr:postcode": "7000",
        "addr:state": "TAS",
        "addr:street": "Murray Street",
        "addr:suburb": "Hobart",
        "amenity": "pub",
        "name": "Customs House",
        "phone": "+61 2 6234 6645",
        "website": "https://www.customshousehotel.com/restaurant"
      }
    },
    {
      "type": "node",
      "id": 331441340,
      "lat": -42.8840787,
      "lon": 147.3337277,
      "tags": {
        "amenity": "restaurant",
        "cuisine": "seafood",
        "diet:gluten_free": "yes",
        "diet:vegetarian": "yes",
        "name": "T42",
        "phone": "+61 459 230 047",
        "toilets:wheelchair": "yes",
        "website": "https://t42hobart.com.au/",
        "wheelchair": "yes"
      }
    },
    {
      "type": "node",
      "id": 331441980,
      "lat": -42.8839836,
      "lon": 147.3238872,
      "tags": {
        "amenity": "pub",
        "name": "Shamrock Hotel"
      }
    },
    {
      "type": "node",
      "id": 332003678,
      "lat": -41.4374103,
      "lon": 147.1396673,
      "tags": {
        "name": "Gourlay's Confectionary Shop",
        "shop": "confectionery"
      }
    },
    {
      "type": "node",
      "id": 332022643,
      "lat": -42.8871699,
      "lon": 147.3324352,
      "tags": {
        "addr:housenumber": "23",
        "addr:postcode": "7004",
        "addr:state": "TAS",
        "addr:street": "Salamanca Square",
        "addr:suburb": "Battery Point",
        "amenity": "bar",
        "name": "Botanica",
        "phone": "+61 3 6224 7557",
        "website": "https://www.botanicabar.com.au/",
        "wheelchair": "limited"
      }
    },
    {
      "type": "node",
      "id": 332022755,
      "lat": -42.8871257,
      "lon": 147.3323118,
      "tags": {
        "name": "Banjo's",
        "shop": "bakery",
        "wheelchair": "yes"
      }
    },
    {
      "type": "node",
      "id": 332483483,
      "lat": -41.4045971,
      "lon": 147.134561,
      "tags": {
        "amenity": "cafe"
      }
    },
    {
      "type": "node",
      "id": 356138576,
      "lat": -41.5246034,
      "lon": 146.6611709,
      "tags": {
        "amenity": "pub",
        "name": "Bush Inn Hotel"
      }
    },
    {
      "type": "node",
      "id": 357022125,
      "lat": -41.9806509,
      "lon": 146.6773779,
      "tags": {
        "amenity": "restaurant",
        "name": "Great Lake Hotel",
        "phone": "+61 3 6236 4000",
        "website": "https://greatlakehotel.com.au/"
      }
    },
    {
      "type": "node",
      "id": 357135235,
      "lat": -41.1786943,
      "lon": 146.36239,
      "tags": {
        "addr:housenumber": "1-3",
        "addr:postcode": "7310",
        "addr:state": "TAS",
        "addr:street": "Best Street",
        "addr:suburb": "Devonport",
        "air_conditioning": "yes",
        "amenity": "fast_food",
        "brand": "McDonald's",
        "brand:wikidata": "Q38076",
        "cuisine": "burger",
        "drive_through": "yes",
        "name": "McDonald's",
        "opening_hours": "24/7",
        "takeaway": "yes",
        "website": "https://www.mcdonalds.com.au/"
      }
    },
    {
      "type": "node",
      "id": 360579339,
      "lat": -42.7814528,
      "lon": 147.5647574,
      "tags": {
        "amenity": "fast_food",
        "brand": "McDonald's",
        "brand:wikidata": "Q38076",
        "brand:wikipedia": "en:McDonald's",
        "cuisine": "burger",
        "drive_through": "yes",
        "name": "McDonald's",
        "takeaway": "yes",
        "website": "https://www.mcdonalds.com.au/"
      }
    },
    {
      "type": "node",
      "id": 391239060,
      "lat": -41.45342,
      "lon": 147.1432561,
      "tags": {
        "amenity": "fast_food",
        "brand": "Hungry Jack's",
        "brand:wikidata": "Q3036373",
        "brand:wikipedia": "en:Hungry Jack's",
        "cuisine": "burger",
        "name": "Hungry Jack's",
        "takeaway": "yes",
        "website": "https://www.hungryjacks.com.au/"
      }
    },
    {
      "type": "node",
      "id": 391239071,
      "lat": -41.4390861,
      "lon": 147.1360038,
      "tags": {
        "amenity": "fast_food",
        "brand": "Subway",
        "brand:wikidata": "Q244457",
        "brand:wikipedia": "en:Subway (restaurant)",
        "cuisine": "sandwich",
        "name": "Subway",
        "takeaway": "yes",
        "website": "https://www.subway.com.au/"
      }
    },
    {
      "type": "node",
      "id": 400696681,
      "lat": -41.5242684,
      "lon": 146.6527632,
      "tags": {
        "addr:housenumber": "80",
        "addr:postcode": "7304",
        "addr:state": "TAS",
        "addr:street": "Emu Bay Road",
        "addr:suburb": "Deloraine",
        "amenity": "pub",
        "name": "British Hotel",
        "wikidata": "Q104234251"
      }
    },
    {
      "type": "node",
      "id": 400696682,
      "lat": -41.5241561,
      "lon": 146.6573123,
      "tags": {
        "amenity": "pub",
        "name": "Deloraine Hotel"
      }
    },
    {
      "type": "node",
      "id": 412733273,
      "lat": -42.8770621,
      "lon": 147.326294,
      "tags": {
        "amenity": "pub",
        "name": "Brisbane Hotel"
      }
    },
    {
      "type": "node",
      "id": 422512560,
      "lat": -41.7793469,
      "lon": 145.5403035,
      "tags": {
        "amenity": "pub",
        "name": "Rosebery Top Pub",
        "tourism": "hotel"
      }
    },
    {
      "type": "node",
      "id": 429669568,
      "lat": -41.3634475,
      "lon": 147.0419532,
      "tags": {
        "amenity": "pub",
        "name": "Legana Tavern"
      }
    },
    {
      "type": "node",
      "id": 441046120,
      "lat": -41.5233485,
      "lon": 146.6519535,
      "tags": {
        "addr:housenumber": "81",
        "addr:postcode": "7304",
        "addr:state": "TAS",
        "addr:street": "Emu Bay Road",
        "addr:suburb": "Deloraine",
        "amenity": "cafe",
        "email": "info@delorainedeli.com.au",
        "level": "0",
        "name": "Deloraine Deli",
        "opening_hours": "Mo-Fr 08:00-16:00; Sa-Su 10:00-16:00",
        "outdoor_seating": "yes",
        "phone": "+61 3 6362 2127",
        "source": "local knowledge",
        "website": "https://www.delorainedeli.com.au/"
      }
    },
    {
      "type": "node",
      "id": 448003742,
      "lat": -41.2981852,
      "lon": 146.9518232,
      "tags": {
        "amenity": "pub",
        "name": "Exeter Hotel"
      }
    },
    {
      "type": "node",
      "id": 448003795,
      "lat": -41.2989872,
      "lon": 146.9521462,
      "tags": {
        "amenity": "cafe",
        "name": "Suzie's Cafe"
      }
    },
    {
      "type": "node",
      "id": 448003820,
      "lat": -41.2988535,
      "lon": 146.9514969,
      "tags": {
        "amenity": "fast_food",
        "name": "Shakers"
      }
    },
    {
      "type": "node",
      "id": 457896925,
      "lat": -42.8900289,
      "lon": 147.3331762,
      "tags": {
        "amenity": "cafe",
        "name": "63 Degree Espresso & Bar"
      }
    },
    {
      "type": "node",
      "id": 469578838,
      "lat": -41.7797601,
      "lon": 145.5396068,
      "tags": {
        "amenity": "pub",
        "name": "Rosebery RSL"
      }
    },
    {
      "type": "node",
      "id": 476028280,
      "lat": -42.8792481,
      "lon": 147.4064025,
      "tags": {
        "amenity": "restaurant"
      }
    },
    {
      "type": "node",
      "id": 476028283,
      "lat": -42.901916,
      "lon": 147.3371759,
      "tags": {
        "amenity": "restaurant",
        "toilets:wheelchair": "yes",
        "wheelchair": "yes"
      }
    },
    {
      "type": "node",
      "id": 476028290,
      "lat": -42.8653491,
      "lon": 147.3705196,
      "tags": {
        "amenity": "fast_food",
        "brand": "Domino's",
        "brand:wikidata": "Q839466",
        "brand:wikipedia": "en:Domino's Pizza",
        "cuisine": "pizza",
        "name": "Domino's",
        "opening_hours": "Su-Th 11:00-23:00; Fr,Sa 11:00-24:00",
        "takeaway": "yes",
        "website": "https://www.dominos.com.au/"
      }
    },
    {
      "type": "node",
      "id": 476031144,
      "lat": -42.855913,
      "lon": 147.305382,
      "tags": {
        "amenity": "fast_food",
        "check_date:opening_hours": "2022-10-08",
        "cuisine": "ice_cream",
        "drive_in": "no",
        "drive_through": "no",
        "name": "Wendy's",
        "opening_hours:signed": "no",
        "wheelchair": "limited"
      }
    },
    {
      "type": "node",
      "id": 476037026,
      "lat": -42.9017166,
      "lon": 147.4475977,
      "tags": {
        "amenity": "fast_food",
        "name": "Legs 'N' Breasts"
      }
    },
    {
      "type": "node",
      "id": 476269252,
      "lat": -42.8647813,
      "lon": 147.3704475,
      "tags": {
        "alt_name": "Kentucky Fried Chicken",
        "amenity": "fast_food",
        "brand": "KFC",
        "brand:wikidata": "Q524757",
        "brand:wikipedia": "en:KFC",
        "cuisine": "chicken",
        "name": "KFC",
        "takeaway": "yes"
      }
    },
    {
      "type": "node",
      "id": 497737394,
      "lat": -42.8724144,
      "lon": 147.3183397,
      "tags": {
        "amenity": "cafe",
        "name": "Smith Street Store"
      }
    },
    {
      "type": "node",
      "id": 560219314,
      "lat": -41.4587429,
      "lon": 147.2008709,
      "tags": {
        "amenity": "fast_food",
        "name": "St Leonards Milk Bar",
        "opening_hours": "Mo-Sa 05:00-17:00; Su off"
      }
    },
    {
      "type": "node",
      "id": 566510790,
      "lat": -39.8381561,
      "lon": 147.8341191,
      "tags": {
        "amenity": "cafe",
        "name": "JJ's On The Bay",
        "source": "survey"
      }
    },
    {
      "type": "node",
      "id": 570770254,
      "lat": -40.2243127,
      "lon": 148.0496565,
      "tags": {
        "amenity": "restaurant",
        "name": "Chappell's Restaurant",
        "note": "approximate position"
      }
    },
    {
      "type": "node",
      "id": 572994899,
      "lat": -40.1194608,
      "lon": 148.0167092,
      "tags": {
        "amenity": "cafe",
        "cuisine": "coffee_shop",
        "name": "Freckles Cafe",
        "source": "survey",
        "source:name": "voice"
      }
    },
    {
      "type": "node",
      "id": 572994962,
      "lat": -40.1196864,
      "lon": 148.0168579,
      "tags": {
        "name": "Flinders Island Bakery",
        "shop": "bakery",
        "source": "survey",
        "source:name": "voice"
      }
    },
    {
      "type": "node",
      "id": 575874461,
      "lat": -40.1209049,
      "lon": 148.0156576,
      "tags": {
        "amenity": "restaurant",
        "note": "part of Interstate Hotel",
        "source": "survey"
      }
    },
    {
      "type": "node",
      "id": 582522422,
      "lat": -40.2115503,
      "lon": 148.2437375,
      "tags": {
        "amenity": "pub",
        "name": "Furneaux Tavern",
        "source": "voice",
        "website": "http://furneauxtavern.com.au/"
      }
    },
    {
      "type": "node",
      "id": 582522426,
      "lat": -40.2115052,
      "lon": 148.2439655,
      "tags": {
        "amenity": "restaurant",
        "name": "Shearwater Restaurant",
        "note": "part of Furneaux Tavern",
        "source": "voice"
      }
    },
    {
      "type": "node",
      "id": 590056208,
      "lat": -41.4351314,
      "lon": 147.1193532,
      "tags": {
        "amenity": "cafe",
        "description": "Cafe Culture"
      }
    },
    {
      "type": "node",
      "id": 600169189,
      "lat": -41.7794089,
      "lon": 145.5401828,
      "tags": {
        "amenity": "cafe",
        "name": "Rosebery Bakehouse"
      }
    },
    {
      "type": "node",
      "id": 600169190,
      "lat": -41.7793169,
      "lon": 145.5397885,
      "tags": {
        "amenity": "cafe",
        "name": "Purple Shop"
      }
    },
    {
      "type": "node",
      "id": 600169191,
      "lat": -41.7794485,
      "lon": 145.5404664,
      "tags": {
        "amenity": "restaurant",
        "name": "Top Pub Restaurant"
      }
    },
    {
      "type": "node",
      "id": 638166922,
      "lat": -43.0950077,
      "lon": 146.729694,
      "tags": {
        "amenity": "cafe",
        "name": "Tahune Airwalk Cafe"
      }
    },
    {
      "type": "node",
      "id": 647761884,
      "lat": -42.1315038,
      "lon": 146.232745,
      "tags": {
        "addr:housenumber": "15488",
        "addr:postcode": "7140",
        "addr:state": "TAS",
        "addr:street": "Lyell Highway",
        "addr:suburb": "Derwent Bridge",
        "amenity": "cafe",
        "cuisine": "fish_and_chips;pasta;pizza",
        "diet:vegetarian": "yes",
        "name": "Hungry Wombat Cafe",
        "opening_hours": "Mo-Su 09:00-16:00",
        "phone": "+61 3 6289 1125",
        "shop": "convenience",
        "source": "gps"
      }
    },
    {
      "type": "node",
      "id": 658942811,
      "lat": -42.8462367,
      "lon": 147.2943021,
      "tags": {
        "addr:housenumber": "110",
        "addr:postcode": "7009",
        "addr:state": "TAS",
        "addr:street": "Main Road",
        "addr:suburb": "Moonah",
        "addr:unit": "1",
        "amenity": "fast_food",
        "brand": "Subway",
        "brand:wikidata": "Q244457",
        "brand:wikipedia": "en:Subway (restaurant)",
        "check_date": "2024-01-05",
        "cuisine": "sandwich",
        "name": "Subway",
        "takeaway": "yes",
        "website": "https://www.subway.com.au/"
      }
    },
    {
      "type": "node",
      "id": 677072216,
      "lat": -42.887064,
      "lon": 147.324874,
      "tags": {
        "amenity": "pub",
        "description": "Live music some nights.",
        "microbrewery": "no",
        "name": "Duke Of Wellington"
      }
    },
    {
      "type": "node",
      "id": 698278008,
      "lat": -42.846595,
      "lon": 147.3539984,
      "tags": {
        "amenity": "cafe",
        "cuisine": "sandwich;pastry",
        "name": "Banjos",
        "outdoor_seating": "yes",
        "website": "https://banjos.com.au/"
      }
    },
    {
      "type": "node",
      "id": 716012281,
      "lat": -41.0400251,
      "lon": 145.8309607,
      "tags": {
        "amenity": "fast_food",
        "name": "Village Milk Bar"
      }
    },
    {
      "type": "node",
      "id": 718476170,
      "lat": -41.0420919,
      "lon": 145.8330064,
      "tags": {
        "amenity": "pub"
      }
    },
    {
      "type": "node",
      "id": 746044261,
      "lat": -41.0336599,
      "lon": 145.8166845,
      "tags": {
        "amenity": "pub",
        "name": "Seabrook Pub"
      }
    },
    {
      "type": "node",
      "id": 746044267,
      "lat": -41.0336238,
      "lon": 145.8164956,
      "tags": {
        "amenity": "bar",
        "name": "Seabrook Bristo"
      }
    },
    {
      "type": "node",
      "id": 764726671,
      "lat": -42.8485492,
      "lon": 147.2965479,
      "tags": {
        "addr:housenumber": "45",
        "addr:postcode": "7009",
        "addr:state": "TAS",
        "addr:street": "Main Road",
        "addr:suburb": "Moonah",
        "amenity": "pub",
        "name": "Cooley's Hotel",
        "opening_hours": "Mo-We 09:00-21:00; Th-Sa 09:00-22:00; Su 12:00-17:00",
        "website": "https://www.cooleyshotel.com.au/"
      }
    },
    {
      "type": "node",
      "id": 764726710,
      "lat": -42.8466411,
      "lon": 147.2950658,
      "tags": {
        "amenity": "pub",
        "name": "The Moonah Hotel & Cellars",
        "source": "local knowledge"
      }
    },
    {
      "type": "node",
      "id": 764730037,
      "lat": -42.8489195,
      "lon": 147.2968072,
      "tags": {
        "addr:housenumber": "39A",
        "addr:postcode": "7009",
        "addr:state": "TAS",
        "addr:street": "Main Road",
        "addr:suburb": "Moonah",
        "amenity": "fast_food",
        "cuisine": "chinese",
        "drive_through": "no",
        "name": "Ausing",
        "opening_hours": "Mo-Fr 10:00-14:30,16:30-20:00; Sa,Su 11:00-14:30,16:30-20:00",
        "takeaway": "only"
      }
    },
    {
      "type": "node",
      "id": 764736363,
      "lat": -42.859107,
      "lon": 147.304466,
      "tags": {
        "amenity": "cafe",
        "cuisine": "coffee_shop",
        "internet_access": "wlan",
        "name": "Jackman & McRoss",
        "opening_hours": "Mo-Su 07:00-17:00; PH off",
        "smoking": "no",
        "wheelchair": "limited"
      }
    },
    {
      "type": "node",
      "id": 792283633,
      "lat": -42.8940797,
      "lon": 147.3262332,
      "tags": {
        "addr:housenumber": "150",
        "addr:postcode": "7005",
        "addr:state": "TAS",
        "addr:street": "Sandy Bay Road",
        "addr:suburb": "Sandy Bay",
        "amenity": "restaurant",
        "check_date:opening_hours": "2023-10-01",
        "cuisine": "chinese",
        "name": "Oriental Restaurant",
        "note": "Temporarily closed from 2023-09-10, reopening 2023-10-06",
        "opening_hours": "Tu-Su 17:00+",
        "phone": "+61 3 6223 5410",
        "source": "Bing",
        "source:opening_hours": "entrance",
        "website": "https://orientalrestaurant.wixsite.com/sandybay"
      }
    },
    {
      "type": "node",
      "id": 795253587,
      "lat": -42.9086291,
      "lon": 147.4920775,
      "tags": {
        "amenity": "fast_food"
      }
    },
    {
      "type": "node",
      "id": 795253588,
      "lat": -42.9112548,
      "lon": 147.4931549,
      "tags": {
        "addr:housenumber": "13",
        "addr:postcode": "7021",
        "addr:state": "TAS",
        "addr:street": "North Terrace",
        "addr:suburb": "Lauderdale",
        "amenity": "restaurant",
        "name": "Driftwood Restaurant",
        "outdoor_seating": "yes",
        "website": "https://driftwoodrestaurant.com.au/"
      }
    },
    {
      "type": "node",
      "id": 797215466,
      "lat": -42.8932191,
      "lon": 147.3127797,
      "tags": {
        "amenity": "restaurant",
        "name": "La Provencal"
      }
    },
    {
      "type": "node",
      "id": 797215469,
      "lat": -42.8949104,
      "lon": 147.3083977,
      "tags": {
        "addr:housenumber": "8",
        "addr:postcode": "7004",
        "addr:state": "TAS",
        "addr:street": "Cascade Road",
        "addr:suburb": "South Hobart",
        "amenity": "bar"
      }
    },
    {
      "type": "node",
      "id": 797215472,
      "lat": -42.8950982,
      "lon": 147.3075249,
      "tags": {
        "amenity": "pub",
        "name": "Cascade Hotel",
        "opening_hours": "Mo-Th 10:00-21:00; Fr,Sa 10:00-22:00; Su 10:00-20:00"
      }
    },
    {
      "type": "node",
      "id": 797215484,
      "lat": -42.8927644,
      "lon": 147.3159618,
      "tags": {
        "amenity": "cafe",
        "name": "South Hobart Foodstore"
      }
    },
    {
      "type": "node",
      "id": 797244193,
      "lat": -42.8846483,
      "lon": 147.3312347,
      "tags": {
        "addr:housenumber": "29",
        "addr:postcode": "7000",
        "addr:state": "TAS",
        "addr:street": "Morrison Street",
        "addr:suburb": "Hobart",
        "amenity": "cafe",
        "name": "Harbour Lights",
        "phone": "+61 2 6224 2138",
        "website": "https://www.harbourlightscafe.com.au/"
      }
    },
    {
      "type": "node",
      "id": 797244211,
      "lat": -42.8847707,
      "lon": 147.3303167,
      "tags": {
        "amenity": "cafe",
        "name": "Portabello Road"
      }
    },
    {
      "type": "node",
      "id": 797244220,
      "lat": -42.8846584,
      "lon": 147.3306023,
      "tags": {
        "amenity": "pub",
        "name": "The Lower House",
        "wheelchair": "no"
      }
    },
    {
      "type": "node",
      "id": 797244301,
      "lat": -42.8867711,
      "lon": 147.3314346,
      "tags": {
        "amenity": "cafe",
        "contact:facebook": "https://www.facebook.com/Doctorcoffeesalamanca/",
        "name": "Dr Coffee",
        "phone": "+61 481 675 139"
      }
    },
    {
      "type": "node",
      "id": 797244315,
      "lat": -42.8868116,
      "lon": 147.3316115,
      "tags": {
        "amenity": "cafe",
        "name": "Retro Cafe"
      }
    },
    {
      "type": "node",
      "id": 797244321,
      "lat": -42.8869875,
      "lon": 147.3315854,
      "tags": {
        "amenity": "cafe",
        "name": "Drifters"
      }
    },
    {
      "type": "node",
      "id": 797244327,
      "lat": -42.8867268,
      "lon": 147.3312146,
      "tags": {
        "amenity": "cafe",
        "name": "Solstice"
      }
    },
    {
      "type": "node",
      "id": 797244429,
      "lat": -42.8875651,
      "lon": 147.3333247,
      "tags": {
        "amenity": "cafe",
        "contact:facebook": "https://www.facebook.com/profile.php?id=100063609127588",
        "name": "Machine Laundry Cafe",
        "opening_hours": "Mo-Su 07:30-17:00",
        "phone": "+61 3 6224 9922",
        "wheelchair": "yes"
      }
    },
    {
      "type": "node",
      "id": 797244500,
      "lat": -42.8896749,
      "lon": 147.3334327,
      "tags": {
        "amenity": "cafe",
        "indoor_seating": "yes",
        "name": "Jackman and McRoss",
        "outdoor_seating": "yes",
        "wheelchair": "limited"
      }
    },
    {
      "type": "node",
      "id": 811274453,
      "lat": -41.77829,
      "lon": 145.5413127,
      "tags": {
        "amenity": "restaurant",
        "name": "Old Jacks"
      }
    },
    {
      "type": "node",
      "id": 943638413,
      "lat": -42.881308,
      "lon": 147.3278109,
      "tags": {
        "amenity": "cafe",
        "internet_access": "wlan",
        "internet_access:operator": "Internode",
        "name": "Ready Lunch"
      }
    },
    {
      "type": "node",
      "id": 945393154,
      "lat": -42.8729117,
      "lon": 147.3148255,
      "tags": {
        "addr:housenumber": "400",
        "addr:postcode": "7000",
        "addr:state": "TAS",
        "addr:street": "Elizabeth Street",
        "addr:suburb": "North Hobart",
        "amenity": "pub",
        "name": "Queen's Head Hotel",
        "phone": "+61 3 6236 9336",
        "website": "https://queensheadhotel.com.au"
      }
    },
    {
      "type": "node",
      "id": 989107357,
      "lat": -41.482693,
      "lon": 146.5969282,
      "tags": {
        "addr:housenumber": "9",
        "addr:postcode": "7304",
        "addr:state": "TAS",
        "addr:street": "Christmas Hills Road",
        "addr:suburb": "Elizabeth Town",
        "amenity": "cafe",
        "building": "farm",
        "description": "Closed Good Friday and Christmas Day",
        "email": "info@raspberryfarmcafe.com",
        "indoor_seating": "yes",
        "name": "Christmas Hills Raspberry Farm Cafe",
        "opening_hours": "Mo-Su 07:00-17:00; easter -2 days off",
        "outdoor_seating": "yes",
        "payment:apple_pay": "yes",
        "payment:cash": "yes",
        "payment:contactless": "yes",
        "payment:credit_cards": "yes",
        "payment:debit_cards": "yes",
        "payment:google_pay": "yes",
        "phone": "+61 3 6362 2186",
        "toilets": "yes",
        "toilets:access": "customers",
        "website": "https://www.raspberryfarmcafe.com/",
        "wheelchair": "no"
      }
    },
    {
      "type": "node",
      "id": 989107484,
      "lat": -41.2891716,
      "lon": 148.0049252,
      "tags": {
        "amenity": "cafe",
        "name": "Holy Cow Cafe",
        "operator": "Pyengana Dairy Company",
        "outdoor_seating": "yes"
      }
    },
    {
      "type": "node",
      "id": 990506059,
      "lat": -42.998323,
      "lon": 147.3185868,
      "tags": {
        "brand": "Banjo's Bakery Cafe",
        "brand:wikidata": "Q105904686",
        "name": "Banjo's Bakery Cafe",
        "shop": "bakery"
      }
    },
    {
      "type": "node",
      "id": 990510031,
      "lat": -43.0016069,
      "lon": 147.3250237,
      "tags": {
        "amenity": "restaurant",
        "name": "Jack Loves Red"
      }
    },
    {
      "type": "node",
      "id": 990511494,
      "lat": -42.9816593,
      "lon": 147.3242612,
      "tags": {
        "amenity": "fast_food",
        "name": "Kingston Beach Takeaway",
        "opening_hours": "Mo 06:00-15:00; Tu-Th 06:00-19:00; Fr 06:00-19:30; Sa 08:00-19:00; Su 08:00-15:00; PH 08:00-16:00"
      }
    },
    {
      "type": "node",
      "id": 990511524,
      "lat": -42.9814576,
      "lon": 147.3244408,
      "tags": {
        "addr:housenumber": "32",
        "addr:postcode": "7050",
        "addr:state": "TAS",
        "addr:street": "Osborne Esplanade",
        "addr:suburb": "Kingston Beach",
        "amenity": "restaurant",
        "name": "Robbie Brown's",
        "phone": "+61 3 6229 7965"
      }
    },
    {
      "type": "node",
      "id": 1005325929,
      "lat": -41.4350868,
      "lon": 147.1196955,
      "tags": {
        "addr:state": "TAS",
        "addr:suburb": "Trevallyn",
        "name": "Trevallyn Bakery",
        "shop": "bakery"
      }
    },
    {
      "type": "node",
      "id": 1017202614,
      "lat": -41.1769197,
      "lon": 146.3508163,
      "tags": {
        "addr:housenumber": "139",
        "addr:postcode": "7310",
        "addr:state": "TAS",
        "addr:street": "William Street",
        "addr:suburb": "Devonport",
        "amenity": "fast_food",
        "brand": "Domino's",
        "brand:wikidata": "Q839466",
        "brand:wikipedia": "en:Domino's Pizza",
        "cuisine": "pizza",
        "drive_through": "no",
        "name": "Domino's",
        "phone": "+61 3 6498 8220",
        "takeaway": "yes",
        "website": "https://www.dominos.com.au/"
      }
    },
    {
      "type": "node",
      "id": 1030215238,
      "lat": -41.4668893,
      "lon": 147.1602742,
      "tags": {
        "amenity": "cafe",
        "cuisine": "coffee_shop",
        "name": "Banjos",
        "website": "https://www.banjos.com.au/"
      }
    },
    {
      "type": "node",
      "id": 1030217640,
      "lat": -41.4675483,
      "lon": 147.1606521,
      "tags": {
        "amenity": "cafe",
        "brand": "Gloria Jean's",
        "brand:wikidata": "Q2666365",
        "cuisine": "coffee_shop",
        "name": "Gloria Jean's",
        "official_name": "Gloria Jean's Coffees",
        "takeaway": "yes",
        "website": "https://www.gloriajeans.com.au/"
      }
    },
    {
      "type": "node",
      "id": 1030273195,
      "lat": -41.4389257,
      "lon": 147.1363229,
      "tags": {
        "alt_name": "Kentucky Fried Chicken",
        "amenity": "fast_food",
        "brand": "KFC",
        "brand:wikidata": "Q524757",
        "brand:wikipedia": "en:KFC",
        "cuisine": "chicken",
        "name": "KFC",
        "takeaway": "yes",
        "website": "https://www.kfc.com.au/"
      }
    },
    {
      "type": "node",
      "id": 1036894958,
      "lat": -42.8800521,
      "lon": 147.4071042,
      "tags": {
        "addr:housenumber": "6",
        "addr:postcode": "7018",
        "addr:state": "TAS",
        "addr:street": "Shoreline Drive",
        "addr:suburb": "Howrah",
        "addr:unit": "Shop 7",
        "name": "Banjo's Tasmanian Bakery Cafe",
        "shop": "bakery"
      }
    },
    {
      "type": "node",
      "id": 1050050376,
      "lat": -41.0511293,
      "lon": 145.9068815,
      "tags": {
        "amenity": "fast_food",
        "brand": "Subway",
        "brand:wikidata": "Q244457",
        "brand:wikipedia": "en:Subway (restaurant)",
        "cuisine": "sandwich",
        "name": "Subway",
        "takeaway": "yes"
      }
    },
    {
      "type": "node",
      "id": 1076635530,
      "lat": -41.3246341,
      "lon": 148.2494196,
      "tags": {
        "addr:housenumber": "2",
        "addr:postcode": "7216",
        "addr:state": "TAS",
        "addr:street": "Cecilia Street",
        "addr:suburb": "St Helens",
        "amenity": "restaurant",
        "internet_access": "wlan",
        "name": "Bayside Hotel",
        "operator": "PGH Group",
        "restaurant": "yes",
        "rooms": "56",
        "stars": "3",
        "website": "https://www.baysidehotel.com.au/"
      }
    },
    {
      "type": "node",
      "id": 1150254561,
      "lat": -43.0977049,
      "lon": 147.7434415,
      "tags": {
        "name": "Nubeena Bakery",
        "shop": "bakery"
      }
    },
    {
      "type": "node",
      "id": 1155811580,
      "lat": -42.8346536,
      "lon": 147.2776845,
      "tags": {
        "amenity": "fast_food",
        "brand": "Subway",
        "brand:wikidata": "Q244457",
        "brand:wikipedia": "en:Subway (restaurant)",
        "cuisine": "sandwich",
        "name": "Subway",
        "takeaway": "yes",
        "website": "https://www.subway.com.au/"
      }
    },
    {
      "type": "node",
      "id": 1155811581,
      "lat": -42.8330584,
      "lon": 147.2768286,
      "tags": {
        "addr:housenumber": "367",
        "addr:postcode": "7010",
        "addr:state": "TAS",
        "addr:street": "Main Road",
        "addr:suburb": "Glenorchy",
        "amenity": "pub",
        "name": "Elwick Hotel",
        "opening_hours": "Mo,Tu 10:00-20:00; We 10:00-21:00; Th,Sa 10:00-22:00; Fr 10:00-23:00; Su 10:00-18:00"
      }
    },
    {
      "type": "node",
      "id": 1164690260,
      "lat": -41.4385378,
      "lon": 147.1362134,
      "tags": {
        "amenity": "pub",
        "name": "Plough Inn"
      }
    },
    {
      "type": "node",
      "id": 1182255947,
      "lat": -41.4402934,
      "lon": 147.146979,
      "tags": {
        "amenity": "cafe"
      }
    },
    {
      "type": "node",
      "id": 1210163368,
      "lat": -41.0717013,
      "lon": 145.8838043,
      "tags": {
        "amenity": "fast_food",
        "name": "J'Zoes Pizza"
      }
    },
    {
      "type": "node",
      "id": 1210187655,
      "lat": -41.0501344,
      "lon": 145.9037803,
      "tags": {
        "amenity": "fast_food",
        "cuisine": "pizza",
        "indoor_seating": "bar_table",
        "name": "Herb's Pizza",
        "outdoor_seating": "yes",
        "takeaway": "yes"
      }
    },
    {
      "type": "node",
      "id": 1223683610,
      "lat": -41.4247151,
      "lon": 147.112932,
      "tags": {
        "amenity": "fast_food",
        "name": "Fish and Chips"
      }
    },
    {
      "type": "node",
      "id": 1223717073,
      "lat": -41.4217852,
      "lon": 147.110912,
      "tags": {
        "amenity": "restaurant",
        "name": "Reflections"
      }
    },
    {
      "type": "node",
      "id": 1234318685,
      "lat": -41.401602,
      "lon": 147.1223536,
      "tags": {
        "amenity": "cafe",
        "internet_access": "yes",
        "internet_access:ssid": "eduroam",
        "name": "Loose Goose Street Food",
        "opening_hours": "Mo-Fr 08:00-16:00",
        "outdoor_seating": "yes"
      }
    },
    {
      "type": "node",
      "id": 1237011718,
      "lat": -41.5647491,
      "lon": 146.3041882,
      "tags": {
        "amenity": "cafe",
        "cuisine": "coffee_shop",
        "name": "Marakoopa Cafe",
        "website": "http://www.marakoopacoffee.com.au/",
        "wifi": "no"
      }
    },
    {
      "type": "node",
      "id": 1237022506,
      "lat": -41.4199918,
      "lon": 146.5243951,
      "tags": {
        "addr:housenumber": "789",
        "addr:postcode": "7304",
        "addr:state": "TAS",
        "addr:street": "Railton Road",
        "addr:suburb": "Kimberley",
        "amenity": "restaurant",
        "name": "Villarett",
        "website": "http://www.villarett.com.au/"
      }
    },
    {
      "type": "node",
      "id": 1238110267,
      "lat": -41.4437477,
      "lon": 147.1414322,
      "tags": {
        "amenity": "cafe",
        "cuisine": "italian",
        "name": "The Pasta Merchant"
      }
    },
    {
      "type": "node",
      "id": 1271044798,
      "lat": -41.4403607,
      "lon": 147.1310074,
      "tags": {
        "addr:housenumber": "135",
        "addr:postcode": "7250",
        "addr:state": "TAS",
        "addr:street": "Paterson Street",
        "addr:suburb": "Launceston",
        "amenity": "restaurant",
        "name": "Cataract on Paterson"
      }
    },
    {
      "type": "node",
      "id": 1295635486,
      "lat": -42.8819605,
      "lon": 147.3247062,
      "tags": {
        "addr:housenumber": "91",
        "addr:postcode": "7000",
        "addr:state": "TAS",
        "addr:street": "Murray Street",
        "addr:suburb": "Hobart",
        "amenity": "cafe",
        "cuisine": "international",
        "name": "Zest The Library Cafe",
        "wifi": "no"
      }
    },
    {
      "type": "node",
      "id": 1330252457,
      "lat": -41.4369607,
      "lon": 147.1392208,
      "tags": {
        "brand": "Banjo's Bakery Cafe",
        "brand:wikidata": "Q105904686",
        "name": "Banjo's Bakery Cafe",
        "shop": "bakery",
        "website": "https://www.banjos.com.au/"
      }
    },
    {
      "type": "node",
      "id": 1332807739,
      "lat": -41.1781314,
      "lon": 146.3607924,
      "tags": {
        "amenity": "fast_food",
        "brand": "Subway",
        "brand:wikidata": "Q244457",
        "brand:wikipedia": "en:Subway (restaurant)",
        "cuisine": "sandwich",
        "name": "Subway",
        "takeaway": "yes",
        "website": "https://www.subway.com.au/"
      }
    },
    {
      "type": "node",
      "id": 1332810568,
      "lat": -41.1804078,
      "lon": 146.362745,
      "tags": {
        "amenity": "pub",
        "name": "The Central"
      }
    },
    {
      "type": "node",
      "id": 1345753825,
      "lat": -41.4852803,
      "lon": 147.1077821,
      "tags": {
        "amenity": "restaurant",
        "name": "Watergarden"
      }
    },
    {
      "type": "node",
      "id": 1345755766,
      "lat": -41.4803094,
      "lon": 147.1254785,
      "tags": {
        "amenity": "fast_food",
        "cuisine": "chicken",
        "name": "Charcoal Chicken"
      }
    },
    {
      "type": "node",
      "id": 1354294778,
      "lat": -42.992689,
      "lon": 147.3053705,
      "tags": {
        "amenity": "fast_food",
        "name": "Hawthorn Drive Store"
      }
    },
    {
      "type": "node",
      "id": 1417746038,
      "lat": -42.3006551,
      "lon": 146.4491815,
      "tags": {
        "amenity": "cafe",
        "name": "TeeZ"
      }
    },
    {
      "type": "node",
      "id": 1417746042,
      "lat": -42.3012621,
      "lon": 146.4487496,
      "tags": {
        "amenity": "restaurant",
        "name": "The Highlander Arms"
      }
    },
    {
      "type": "node",
      "id": 1437209173,
      "lat": -42.7810622,
      "lon": 147.5637202,
      "tags": {
        "name": "Trendy Bakery",
        "shop": "bakery"
      }
    },
    {
      "type": "node",
      "id": 1438083159,
      "lat": -42.7820971,
      "lon": 147.5627271,
      "tags": {
        "amenity": "fast_food",
        "cuisine": "chicken",
        "name": "Legs'n'breasts"
      }
    },
    {
      "type": "node",
      "id": 1477360245,
      "lat": -42.9758612,
      "lon": 147.3087567,
      "tags": {
        "brand": "Banjo's Bakery Cafe",
        "brand:wikidata": "Q105904686",
        "name": "Banjo's Bakery Cafe",
        "shop": "bakery",
        "website": "https://www.banjos.com.au/"
      }
    },
    {
      "type": "node",
      "id": 1483134576,
      "lat": -41.4075509,
      "lon": 147.144911,
      "tags": {
        "amenity": "fast_food",
        "name": "Winning Post Takeaway"
      }
    },
    {
      "type": "node",
      "id": 1551471468,
      "lat": -41.173735,
      "lon": 146.5024749,
      "tags": {
        "amenity": "restaurant",
        "cuisine": "regional",
        "name": "Ghost Rock",
        "operator": "vineyard - cellar door"
      }
    },
    {
      "type": "node",
      "id": 1551955301,
      "lat": -41.1142273,
      "lon": 146.0737661,
      "tags": {
        "amenity": "restaurant",
        "name": "Wild Restaurant Cafe"
      }
    },
    {
      "type": "node",
      "id": 1555630918,
      "lat": -42.1229756,
      "lon": 148.0736423,
      "tags": {
        "amenity": "restaurant",
        "cuisine": "fish_and_chips"
      }
    },
    {
      "type": "node",
      "id": 1631224165,
      "lat": -43.1010174,
      "lon": 147.7421406,
      "tags": {
        "amenity": "restaurant",
        "name": "Lucky Ducks"
      }
    },
    {
      "type": "node",
      "id": 1631224173,
      "lat": -42.8877914,
      "lon": 147.8145659,
      "tags": {
        "addr:state": "TAS",
        "addr:street": "Imlay Street",
        "addr:suburb": "Dunalley",
        "addr:unit": "4",
        "amenity": "restaurant",
        "name": "The Cannery",
        "website": "https://www.facebook.com/people/The-Cannery-Dunalley/100039993646177/"
      }
    },
    {
      "type": "node",
      "id": 1714208460,
      "lat": -41.5880636,
      "lon": 147.1200939,
      "tags": {
        "brand": "Banjo's Bakery Cafe",
        "brand:wikidata": "Q105904686",
        "name": "Banjo's Bakery Cafe",
        "shop": "bakery",
        "website": "https://www.banjos.com.au/"
      }
    },
    {
      "type": "node",
      "id": 1714209295,
      "lat": -41.5924538,
      "lon": 147.121203,
      "tags": {
        "name": "JJ's Bakery",
        "shop": "bakery"
      }
    },
    {
      "type": "node",
      "id": 1714245063,
      "lat": -41.5949428,
      "lon": 147.1212067,
      "tags": {
        "amenity": "restaurant",
        "name": "Happy Chef"
      }
    },
    {
      "type": "node",
      "id": 1784560986,
      "lat": -41.0493282,
      "lon": 145.9056905,
      "tags": {
        "amenity": "restaurant",
        "name": "Bayviews Restaurant",
        "operator": "seafood"
      }
    },
    {
      "type": "node",
      "id": 1784560992,
      "lat": -41.0525149,
      "lon": 145.9062584,
      "tags": {
        "amenity": "cafe",
        "name": "Europa",
        "opening_hours": "Mo-Fr 08:00-14:00; Sa 09:30-14:00"
      }
    },
    {
      "type": "node",
      "id": 1784560995,
      "lat": -41.0493739,
      "lon": 145.9056446,
      "tags": {
        "amenity": "restaurant",
        "cuisine": "seafood",
        "name": "Fish Frenzy",
        "source": "survey"
      }
    },
    {
      "type": "node",
      "id": 1784560998,
      "lat": -41.0527165,
      "lon": 145.9061923,
      "tags": {
        "amenity": "restaurant",
        "cuisine": "chinese",
        "name": "Fortuna Garden"
      }
    },
    {
      "type": "node",
      "id": 1784561002,
      "lat": -41.0527776,
      "lon": 145.9062073,
      "tags": {
        "amenity": "cafe",
        "name": "The Good Place"
      }
    },
    {
      "type": "node",
      "id": 1784561014,
      "lat": -41.0484505,
      "lon": 145.9025751,
      "tags": {
        "amenity": "restaurant",
        "name": "Mallee Grill",
        "opening_hours": "Mo-Su 12:00-02:00,17:30-18:00+",
        "source": "survey"
      }
    },
    {
      "type": "node",
      "id": 1784561016,
      "lat": -41.0500152,
      "lon": 145.9067524,
      "tags": {
        "amenity": "cafe",
        "name": "Napoli",
        "source": "survey"
      }
    },
    {
      "type": "node",
      "id": 1784561017,
      "lat": -41.0510126,
      "lon": 145.9079455,
      "tags": {
        "amenity": "fast_food",
        "brand": "Noodle Box",
        "brand:wikidata": "Q7049671",
        "brand:wikipedia": "en:Noodle Box",
        "cuisine": "noodle",
        "indoor_seating": "yes",
        "name": "Kebab and Noodles",
        "opening_hours": "Mo-Sa 11:30-20:00; PH closed",
        "takeaway": "yes",
        "wheelchair": "yes"
      }
    },
    {
      "type": "node",
      "id": 1784561024,
      "lat": -41.0523846,
      "lon": 145.9071822,
      "tags": {
        "addr:housenumber": "12",
        "addr:postcode": "7320",
        "addr:state": "TAS",
        "addr:street": "Cattley Street",
        "addr:suburb": "Burnie",
        "amenity": "restaurant",
        "cuisine": "vietnamese",
        "name": "DL Vietnamese",
        "takeaway": "yes"
      }
    },
    {
      "type": "node",
      "id": 1784561053,
      "lat": -41.0545233,
      "lon": 145.9058315,
      "tags": {
        "amenity": "restaurant",
        "cuisine": "indian",
        "name": "Indian Corner At Wilson"
      }
    },
    {
      "type": "node",
      "id": 1784561574,
      "lat": -41.0550047,
      "lon": 145.9060746,
      "tags": {
        "amenity": "fast_food",
        "cuisine": "noodle",
        "name": "Dave's Noodles",
        "operator": "Dave's Noodles"
      }
    },
    {
      "type": "node",
      "id": 1784561575,
      "lat": -41.0552437,
      "lon": 145.9060214,
      "tags": {
        "amenity": "fast_food",
        "brand": "Domino's",
        "brand:wikidata": "Q839466",
        "cuisine": "pizza",
        "name": "Domino's",
        "operator": "Domino's",
        "takeaway": "yes"
      }
    },
    {
      "type": "node",
      "id": 1785671275,
      "lat": -41.0521911,
      "lon": 145.907419,
      "tags": {
        "amenity": "cafe",
        "name": "Palate"
      }
    },
    {
      "type": "node",
      "id": 1785671284,
      "lat": -41.0489846,
      "lon": 145.904222,
      "tags": {
        "amenity": "restaurant",
        "name": "Raindrops",
        "source": "survey"
      }
    },
    {
      "type": "node",
      "id": 1785671288,
      "lat": -41.0506348,
      "lon": 145.9047082,
      "tags": {
        "amenity": "restaurant",
        "cuisine": "italian",
        "name": "Rialto",
        "opening_hours": "Tu-Sa 17:30+; We-Fr 12:00-14:00,17:30+",
        "outdoor_seating": "no",
        "phone": "+61 3 6431 7718"
      }
    },
    {
      "type": "node",
      "id": 1791503367,
      "lat": -41.052149,
      "lon": 145.8917742,
      "tags": {
        "amenity": "cafe",
        "name": "The Secret Buddha"
      }
    },
    {
      "type": "node",
      "id": 1793902124,
      "lat": -42.8875482,
      "lon": 147.3328615,
      "tags": {
        "amenity": "restaurant",
        "cuisine": "italian",
        "name": "Ciuccio",
        "wheelchair": "yes"
      }
    },
    {
      "type": "node",
      "id": 1801263609,
      "lat": -41.436303,
      "lon": 147.1390452,
      "tags": {
        "amenity": "cafe",
        "cuisine": "pizza;burger",
        "description": "Take-away food and drinks and general convenience store with groceries and fresh fruit, vegetables and refridgerated goods.",
        "name": "Jo's City Express"
      }
    },
    {
      "type": "node",
      "id": 1801269791,
      "lat": -41.4352902,
      "lon": 147.1395245,
      "tags": {
        "amenity": "restaurant",
        "cuisine": "indian",
        "name": "Indian Empire"
      }
    },
    {
      "type": "node",
      "id": 1801398196,
      "lat": -41.4346291,
      "lon": 147.1388841,
      "tags": {
        "amenity": "restaurant",
        "cuisine": "italian",
        "name": "Franco's"
      }
    },
    {
      "type": "node",
      "id": 1801399193,
      "lat": -41.4355169,
      "lon": 147.1400652,
      "tags": {
        "amenity": "restaurant",
        "cuisine": "italian",
        "name": "La Cantina"
      }
    },
    {
      "type": "node",
      "id": 1801401361,
      "lat": -41.4350071,
      "lon": 147.1416764,
      "tags": {
        "amenity": "restaurant",
        "cuisine": "italian",
        "name": "Novaro’s Italian Restaurant",
        "wheelchair": "limited"
      }
    },
    {
      "type": "node",
      "id": 1801406214,
      "lat": -41.4347966,
      "lon": 147.1418899,
      "tags": {
        "amenity": "restaurant",
        "name": "Terry Fidler Brisbane Street Bistro"
      }
    },
    {
      "type": "node",
      "id": 1801481125,
      "lat": -41.4334567,
      "lon": 147.1439321,
      "tags": {
        "amenity": "restaurant",
        "cuisine": "other",
        "name": "Restaurant 13"
      }
    },
    {
      "type": "node",
      "id": 1801485288,
      "lat": -41.436352,
      "lon": 147.140739,
      "tags": {
        "amenity": "restaurant",
        "cuisine": "chinese",
        "name": "Minh Buu Chinese Restaurant"
      }
    },
    {
      "type": "node",
      "id": 1801508506,
      "lat": -41.4368526,
      "lon": 147.1394624,
      "tags": {
        "amenity": "cafe",
        "name": "Liv Eat",
        "name:en": "Live-Eat"
      }
    },
    {
      "type": "node",
      "id": 1801530061,
      "lat": -41.1134943,
      "lon": 146.0723217,
      "tags": {
        "amenity": "cafe",
        "name": "Groovy Penguin Cafe"
      }
    },
    {
      "type": "node",
      "id": 1801530071,
      "lat": -41.1151298,
      "lon": 146.0741756,
      "tags": {
        "amenity": "cafe",
        "name": "Shady Grove Cafe"
      }
    },
    {
      "type": "node",
      "id": 1802324309,
      "lat": -41.4375287,
      "lon": 147.13956,
      "tags": {
        "amenity": "cafe",
        "cuisine": "coffee_shop",
        "name": "Dicky's Cafe"
      }
    },
    {
      "type": "node",
      "id": 1803704455,
      "lat": -41.441347,
      "lon": 147.1375162,
      "tags": {
        "amenity": "restaurant",
        "cuisine": "italian",
        "name": "Calabrisella"
      }
    },
    {
      "type": "node",
      "id": 1808405749,
      "lat": -41.3641807,
      "lon": 147.0425885,
      "tags": {
        "amenity": "fast_food",
        "cuisine": "thai",
        "name": "Ms. Hong Kong"
      }
    },
    {
      "type": "node",
      "id": 1808405750,
      "lat": -41.3642029,
      "lon": 147.0427118,
      "tags": {
        "amenity": "fast_food",
        "cuisine": "pizza",
        "name": "Rhino Pizza",
        "website": "https://rhinopizza.com.au/"
      }
    },
    {
      "type": "node",
      "id": 1808405754,
      "lat": -41.3644672,
      "lon": 147.0428817,
      "tags": {
        "name": "Legana Deli",
        "shop": "deli"
      }
    },
    {
      "type": "node",
      "id": 1808405755,
      "lat": -41.3642139,
      "lon": 147.0427734,
      "tags": {
        "amenity": "restaurant",
        "cuisine": "japanese",
        "name": "Bento Legana",
        "website": "https://bentolegana.com.au/"
      }
    },
    {
      "type": "node",
      "id": 1808405759,
      "lat": -41.3642269,
      "lon": 147.0428261,
      "tags": {
        "amenity": "cafe",
        "name": "Cafe Romero"
      }
    },
    {
      "type": "node",
      "id": 1824931322,
      "lat": -42.8720953,
      "lon": 147.3146351,
      "tags": {
        "addr:housenumber": "381",
        "addr:postcode": "7000",
        "addr:state": "TAS",
        "addr:street": "Elizabeth Street",
        "addr:suburb": "North Hobart",
        "amenity": "pub",
        "name": "The Winston"
      }
    },
    {
      "type": "node",
      "id": 1832736333,
      "lat": -42.859716,
      "lon": 147.306461,
      "tags": {
        "amenity": "pub",
        "cuisine": "barbecue",
        "microbrewery": "no",
        "name": "The Talbot Hotel",
        "opening_hours": "Tu-Su 11:30-14:00, Tu-Sa 17:30-20:00",
        "phone": "+61 3 6228 1385",
        "website": "https://talbottavern.com.au/",
        "wheelchair": "limited"
      }
    },
    {
      "type": "node",
      "id": 1832802216,
      "lat": -42.8738833,
      "lon": 147.3159745,
      "tags": {
        "name": "Pane Cucina",
        "shop": "bakery"
      }
    },
    {
      "type": "node",
      "id": 1861405576,
      "lat": -41.436425,
      "lon": 147.1372114,
      "tags": {
        "amenity": "cafe",
        "cuisine": "coffee_shop",
        "name": "Maggies Cafe"
      }
    },
    {
      "type": "node",
      "id": 1875425383,
      "lat": -42.7913073,
      "lon": 147.2551713,
      "tags": {
        "brand": "Bakers Delight",
        "brand:wikidata": "Q4849261",
        "name": "Bakers Delight",
        "opening_hours": "Mo-Su 07:00-19:30",
        "payment:cards": "yes",
        "payment:cash": "yes",
        "phone": "+61 3 6249 9117",
        "shop": "bakery",
        "website": "https://www.bakersdelight.com.au/bakery-locator/claremont-plaza/",
        "wheelchair": "yes"
      }
    },
    {
      "type": "node",
      "id": 1892916411,
      "lat": -42.8794163,
      "lon": 147.4067482,
      "tags": {
        "amenity": "bar"
      }
    },
    {
      "type": "node",
      "id": 1910981001,
      "lat": -41.4347902,
      "lon": 147.1363639,
      "tags": {
        "amenity": "cafe",
        "name": "Elm Tree Licensed Café"
      }
    },
    {
      "type": "node",
      "id": 1910989162,
      "lat": -41.4433038,
      "lon": 147.1412129,
      "tags": {
        "amenity": "cafe",
        "cuisine": "coffee_shop",
        "name": "Elaia Cafe",
        "wheelchair": "yes"
      }
    },
    {
      "type": "node",
      "id": 1910994964,
      "lat": -41.4385764,
      "lon": 147.1400863,
      "tags": {
        "amenity": "cafe",
        "cuisine": "coffee_shop",
        "name": "the Metz café bar",
        "website": "https://www.metzcafebar.com.au/"
      }
    },
    {
      "type": "node",
      "id": 1911018621,
      "lat": -41.5056748,
      "lon": 147.2043515,
      "tags": {
        "amenity": "cafe",
        "cuisine": "coffee_shop",
        "name": "Josef Chromy Cellar Door Café"
      }
    },
    {
      "type": "node",
      "id": 1911025869,
      "lat": -41.4381317,
      "lon": 147.1397539,
      "tags": {
        "amenity": "cafe",
        "brand": "Hudsons Coffee",
        "brand:wikidata": "Q5929076",
        "brand:wikipedia": "en:Hudsons Coffee",
        "cuisine": "coffee_shop",
        "name": "Hudsons Coffee",
        "opening_hours": "Mo-Tu 05:15-21:00; Th-Fr 05:15-21:00; Sa 05:15-18:00; Su 07:15-21:00",
        "takeaway": "yes",
        "website": "https://www.hudsonscoffee.com.au/"
      }
    },
    {
      "type": "node",
      "id": 1911029564,
      "lat": -41.5428388,
      "lon": 147.2055908,
      "tags": {
        "amenity": "cafe",
        "brand": "Hudsons Coffee",
        "brand:wikidata": "Q5929076",
        "brand:wikipedia": "en:Hudsons Coffee",
        "cuisine": "coffee_shop",
        "name": "Hudsons Coffee",
        "takeaway": "yes",
        "website": "https://www.hudsonscoffee.com.au/"
      }
    },
    {
      "type": "node",
      "id": 1911030098,
      "lat": -41.5430677,
      "lon": 147.2056335,
      "tags": {
        "amenity": "cafe",
        "branch": "Level 1",
        "brand": "Hudsons Coffee",
        "brand:wikidata": "Q5929076",
        "brand:wikipedia": "en:Hudsons Coffee",
        "cuisine": "coffee_shop",
        "name": "Hudsons Coffee",
        "takeaway": "yes",
        "website": "https://www.hudsonscoffee.com.au/"
      }
    },
    {
      "type": "node",
      "id": 1912249384,
      "lat": -41.4289473,
      "lon": 147.1481294,
      "tags": {
        "amenity": "cafe",
        "cuisine": "coffee_shop",
        "name": "Bakers Dozen"
      }
    },
    {
      "type": "node",
      "id": 1912262155,
      "lat": -41.442461,
      "lon": 147.1405309,
      "tags": {
        "amenity": "cafe",
        "cuisine": "coffee_shop",
        "name": "Friends Café"
      }
    },
    {
      "type": "node",
      "id": 1912279130,
      "lat": -41.4309048,
      "lon": 147.1433079,
      "tags": {
        "amenity": "cafe",
        "cuisine": "coffee_shop",
        "name": "Smokey Joe's Creole Café"
      }
    },
    {
      "type": "node",
      "id": 1912287900,
      "lat": -41.4366238,
      "lon": 147.1392814,
      "tags": {
        "amenity": "cafe",
        "cuisine": "coffee_shop",
        "name": "Yolanda Jean Cafe"
      }
    },
    {
      "type": "node",
      "id": 1912290760,
      "lat": -41.4363545,
      "lon": 147.1393725,
      "tags": {
        "amenity": "cafe",
        "cuisine": "coffee_shop",
        "name": "Croplines Coffee"
      }
    },
    {
      "type": "node",
      "id": 1912310166,
      "lat": -41.4324445,
      "lon": 147.133021,
      "tags": {
        "amenity": "cafe",
        "cuisine": "fish_and_chips",
        "name": "Fish 'n' Chips"
      }
    },
    {
      "type": "node",
      "id": 1912317971,
      "lat": -41.437075,
      "lon": 147.1409196,
      "tags": {
        "amenity": "cafe",
        "cuisine": "coffee_shop",
        "name": "Exeter Bakery - In The City Café"
      }
    },
    {
      "type": "node",
      "id": 1912320542,
      "lat": -41.4329241,
      "lon": 147.1329481,
      "tags": {
        "amenity": "cafe",
        "cuisine": "coffee_shop",
        "name": "Dockside Café Winebar"
      }
    },
    {
      "type": "node",
      "id": 1912335182,
      "lat": -41.4350253,
      "lon": 147.139611,
      "tags": {
        "amenity": "cafe",
        "cuisine": "coffee_shop",
        "name": "Great Scot"
      }
    },
    {
      "type": "node",
      "id": 1912347206,
      "lat": -41.4343135,
      "lon": 147.1380967,
      "tags": {
        "amenity": "cafe",
        "name": "The Atrium Café"
      }
    },
    {
      "type": "node",
      "id": 1912355212,
      "lat": -41.4380113,
      "lon": 147.137932,
      "tags": {
        "amenity": "cafe",
        "brand": "Coffee Republic",
        "brand:wikidata": "Q5140923",
        "cuisine": "coffee_shop",
        "name": "Coffee Republic",
        "takeaway": "yes"
      }
    },
    {
      "type": "node",
      "id": 1912388911,
      "lat": -41.4387957,
      "lon": 147.1402277,
      "tags": {
        "amenity": "cafe",
        "cuisine": "coffee_shop",
        "name": "Chi Chi Café"
      }
    },
    {
      "type": "node",
      "id": 1913362642,
      "lat": -41.4361045,
      "lon": 147.138878,
      "tags": {
        "amenity": "cafe",
        "cuisine": "coffee_shop",
        "name": "The Kiosk"
      }
    },
    {
      "type": "node",
      "id": 1913383450,
      "lat": -41.4404433,
      "lon": 147.1290364,
      "tags": {
        "amenity": "restaurant",
        "name": "Stillwater Restaurant & Cafe"
      }
    },
    {
      "type": "node",
      "id": 1913394409,
      "lat": -41.432773,
      "lon": 147.1329018,
      "tags": {
        "amenity": "cafe",
        "name": "Cube Seaport",
        "website": "http://www.cubecoffee.com.au/cube-seaport.aspx"
      }
    },
    {
      "type": "node",
      "id": 1913403201,
      "lat": -41.4356703,
      "lon": 147.1410343,
      "tags": {
        "amenity": "cafe",
        "name": "Cycle Torque & Coffee",
        "shop": "bicycle"
      }
    },
    {
      "type": "node",
      "id": 1913694158,
      "lat": -41.443476,
      "lon": 147.1413365,
      "tags": {
        "amenity": "cafe",
        "cuisine": "coffee_shop",
        "name": "Cafe Mondello"
      }
    },
    {
      "type": "node",
      "id": 1917868985,
      "lat": -41.4353598,
      "lon": 147.1399633,
      "tags": {
        "amenity": "cafe",
        "cuisine": "coffee_shop;international",
        "name": "Poutinerie"
      }
    },
    {
      "type": "node",
      "id": 1917885887,
      "lat": -41.4357843,
      "lon": 147.1398361,
      "tags": {
        "amenity": "cafe",
        "cuisine": "coffee_shop",
        "name": "cocobean chocolate"
      }
    },
    {
      "type": "node",
      "id": 1918106079,
      "lat": -41.4358588,
      "lon": 147.1403425,
      "tags": {
        "amenity": "cafe",
        "cuisine": "kebab",
        "name": "Turkish Tukka"
      }
    },
    {
      "type": "node",
      "id": 1918124908,
      "lat": -41.435127,
      "lon": 147.1408198,
      "tags": {
        "amenity": "cafe",
        "cuisine": "coffee_shop",
        "name": "The Antique Cafe"
      }
    },
    {
      "type": "node",
      "id": 1918132825,
      "lat": -41.4304657,
      "lon": 147.1441659,
      "tags": {
        "amenity": "cafe",
        "cuisine": "coffee_shop",
        "name": "Relax Café & Espresso Bar"
      }
    },
    {
      "type": "node",
      "id": 1918140274,
      "lat": -41.4367469,
      "lon": 147.1410859,
      "tags": {
        "addr:housenumber": "91-95",
        "addr:postcode": "7250",
        "addr:state": "TAS",
        "addr:street": "George Street",
        "addr:suburb": "Launceston",
        "amenity": "cafe",
        "cuisine": "coffee_shop",
        "name": "Bryher"
      }
    },
    {
      "type": "node",
      "id": 1918144730,
      "lat": -41.4391536,
      "lon": 147.1405209,
      "tags": {
        "amenity": "cafe",
        "cuisine": "coffee_shop",
        "name": "Beatha Milkbar Café"
      }
    },
    {
      "type": "node",
      "id": 1918151498,
      "lat": -41.4375169,
      "lon": 147.1370373,
      "tags": {
        "amenity": "cafe",
        "cuisine": "asian",
        "name": "Ali's Asian Café"
      }
    },
    {
      "type": "node",
      "id": 1918156975,
      "lat": -41.4375978,
      "lon": 147.1366612,
      "tags": {
        "amenity": "cafe",
        "cuisine": "coffee_shop",
        "name": "Pantry"
      }
    },
    {
      "type": "node",
      "id": 1918158698,
      "lat": -41.4803322,
      "lon": 147.1250621,
      "tags": {
        "amenity": "cafe",
        "cuisine": "coffee_shop",
        "name": "F.A.B Espresso"
      }
    },
    {
      "type": "node",
      "id": 1918161009,
      "lat": -41.4454842,
      "lon": 147.1422739,
      "tags": {
        "amenity": "cafe",
        "cuisine": "coffee_shop",
        "name": "Aroma's Fine Foods & News"
      }
    },
    {
      "type": "node",
      "id": 1918162182,
      "lat": -41.439196,
      "lon": 147.1509597,
      "tags": {
        "amenity": "cafe",
        "cuisine": "coffee_shop",
        "name": "Relish"
      }
    },
    {
      "type": "node",
      "id": 1918174025,
      "lat": -41.3514681,
      "lon": 147.0021196,
      "tags": {
        "amenity": "cafe",
        "cuisine": "coffee_shop",
        "name": "Chocolate Café"
      }
    },
    {
      "type": "node",
      "id": 1918180452,
      "lat": -41.3516372,
      "lon": 147.002314,
      "tags": {
        "amenity": "cafe",
        "check_date": "2023-10-24",
        "cuisine": "coffee_shop",
        "name": "Grindelwald Bakery & Coffee Shop"
      }
    },
    {
      "type": "node",
      "id": 1918190922,
      "lat": -41.4047606,
      "lon": 147.1324033,
      "tags": {
        "amenity": "cafe",
        "cuisine": "coffee_shop",
        "name": "The CAF Dine In & Takeaways"
      }
    },
    {
      "type": "node",
      "id": 1918195854,
      "lat": -41.4471357,
      "lon": 147.1407356,
      "tags": {
        "amenity": "cafe",
        "cuisine": "coffee_shop",
        "name": "Cafe on Frankland"
      }
    },
    {
      "type": "node",
      "id": 1919378239,
      "lat": -41.4173433,
      "lon": 147.141864,
      "tags": {
        "amenity": "cafe",
        "cuisine": "coffee_shop",
        "name": "Ritual Coffee"
      }
    },
    {
      "type": "node",
      "id": 1919400176,
      "lat": -41.428252,
      "lon": 147.1411607,
      "tags": {
        "amenity": "cafe",
        "cuisine": "coffee_shop",
        "name": "Signals Café",
        "website": "https://www.qvmag.tas.gov.au/qvmag/?c=77"
      }
    },
    {
      "type": "node",
      "id": 1919406206,
      "lat": -41.4378451,
      "lon": 147.1337277,
      "tags": {
        "amenity": "cafe",
        "cuisine": "coffee_shop",
        "name": "The Tea Room"
      }
    },
    {
      "type": "node",
      "id": 1919451551,
      "lat": -41.36451,
      "lon": 147.0432013,
      "tags": {
        "brand": "Banjo's Bakery Cafe",
        "brand:wikidata": "Q105904686",
        "cuisine": "coffee_shop",
        "full_name": "Banjo's Legana",
        "name": "Banjo's Bakery Cafe",
        "shop": "bakery",
        "website": "https://www.banjos.com.au/"
      }
    },
    {
      "type": "node",
      "id": 1919474693,
      "lat": -41.413369,
      "lon": 147.1013915,
      "tags": {
        "amenity": "cafe",
        "cuisine": "coffee_shop",
        "name": "Banjo's Riverside",
        "opening_hours": "Mo-Su 06:00-18:00",
        "website": "https://www.banjos.com.au/"
      }
    },
    {
      "type": "node",
      "id": 1919519403,
      "lat": -41.4206196,
      "lon": 147.1116764,
      "tags": {
        "amenity": "cafe",
        "cuisine": "coffee_shop",
        "name": "Tailrace Café"
      }
    },
    {
      "type": "node",
      "id": 1919558521,
      "lat": -41.571159,
      "lon": 147.2482261,
      "tags": {
        "amenity": "cafe",
        "cuisine": "coffee_shop",
        "name": "Ingleside Bakery Café"
      }
    },
    {
      "type": "node",
      "id": 1919584894,
      "lat": -41.5710221,
      "lon": 147.2499054,
      "tags": {
        "amenity": "cafe",
        "cuisine": "coffee_shop",
        "name": "The Muse Coffee Bar"
      }
    },
    {
      "type": "node",
      "id": 1919595995,
      "lat": -41.5767025,
      "lon": 147.17405,
      "tags": {
        "amenity": "cafe",
        "cuisine": "coffee_shop",
        "name": "Ut Si Café"
      }
    },
    {
      "type": "node",
      "id": 1919624420,
      "lat": -41.3908469,
      "lon": 147.1258685,
      "tags": {
        "amenity": "cafe",
        "cuisine": "coffee_shop",
        "name": "West's Star Bakery"
      }
    },
    {
      "type": "node",
      "id": 1919628991,
      "lat": -41.5921628,
      "lon": 147.1211246,
      "tags": {
        "amenity": "cafe",
        "cuisine": "coffee_shop",
        "name": "JJ's Licensed Bakery Cafe"
      }
    },
    {
      "type": "node",
      "id": 1919635464,
      "lat": -41.5951185,
      "lon": 147.1221869,
      "tags": {
        "amenity": "cafe",
        "cuisine": "coffee_shop",
        "name": "Sticky Beaks Café"
      }
    },
    {
      "type": "node",
      "id": 1920912629,
      "lat": -41.4059976,
      "lon": 147.132746,
      "tags": {
        "amenity": "fast_food",
        "brand": "Domino's",
        "brand:wikidata": "Q839466",
        "brand:wikipedia": "en:Domino's Pizza",
        "cuisine": "pizza",
        "name": "Domino's",
        "takeaway": "yes"
      }
    },
    {
      "type": "node",
      "id": 1920922655,
      "lat": -41.4421333,
      "lon": 147.1378863,
      "tags": {
        "amenity": "fast_food",
        "brand": "Domino's",
        "brand:wikidata": "Q839466",
        "brand:wikipedia": "en:Domino's Pizza",
        "cuisine": "pizza",
        "name": "Domino's",
        "takeaway": "yes",
        "website": "https://www.dominos.com.au/",
        "wheelchair": "yes"
      }
    },
    {
      "type": "node",
      "id": 1920934718,
      "lat": -41.4638252,
      "lon": 147.1585441,
      "tags": {
        "amenity": "fast_food",
        "brand": "Domino's",
        "brand:wikidata": "Q839466",
        "brand:wikipedia": "en:Domino's Pizza",
        "cuisine": "pizza",
        "name": "Domino's",
        "takeaway": "yes",
        "toilets:wheelchair": "no",
        "website": "https://www.dominos.com.au/",
        "wheelchair": "yes"
      }
    },
    {
      "type": "node",
      "id": 1920948608,
      "lat": -41.4060547,
      "lon": 147.1333549,
      "tags": {
        "amenity": "restaurant",
        "brand": "Pizza Hut",
        "brand:wikidata": "Q191615",
        "brand:wikipedia": "en:Pizza Hut",
        "cuisine": "pizza",
        "name": "Pizza Hut"
      }
    },
    {
      "type": "node",
      "id": 1920968757,
      "lat": -41.469563,
      "lon": 147.1611649,
      "tags": {
        "amenity": "restaurant",
        "brand": "Pizza Hut",
        "brand:wikidata": "Q191615",
        "brand:wikipedia": "en:Pizza Hut",
        "cuisine": "pizza",
        "name": "Pizza Hut",
        "website": "https://www.pizzahut.com.au/"
      }
    },
    {
      "type": "node",
      "id": 1921004694,
      "lat": -41.466181,
      "lon": 147.1594507,
      "tags": {
        "amenity": "fast_food",
        "brand": "Subway",
        "brand:wikidata": "Q244457",
        "brand:wikipedia": "en:Subway (restaurant)",
        "cuisine": "sandwich",
        "name": "Subway",
        "takeaway": "yes",
        "website": "https://www.subway.com.au/"
      }
    },
    {
      "type": "node",
      "id": 1921015338,
      "lat": -41.4048311,
      "lon": 147.1344294,
      "tags": {
        "amenity": "fast_food",
        "cuisine": "chicken",
        "name": "Charcoal Chicken"
      }
    },
    {
      "type": "node",
      "id": 1921031171,
      "lat": -41.4422177,
      "lon": 147.1383478,
      "tags": {
        "amenity": "fast_food",
        "cuisine": "pizza",
        "name": "The Pizza Pub",
        "website": "https://www.pizzapub.com.au/"
      }
    },
    {
      "type": "node",
      "id": 1921032775,
      "lat": -41.4356339,
      "lon": 147.1401105,
      "tags": {
        "amenity": "fast_food",
        "cuisine": "pizza",
        "name": "Italian Pizza House"
      }
    },
    {
      "type": "node",
      "id": 1921034682,
      "lat": -41.430239,
      "lon": 147.1463998,
      "tags": {
        "amenity": "fast_food",
        "name": "Cimitere Street Takeaways"
      }
    },
    {
      "type": "node",
      "id": 1921041216,
      "lat": -41.4248232,
      "lon": 147.1336404,
      "tags": {
        "amenity": "fast_food",
        "name": "Forster Street Takeaways"
      }
    },
    {
      "type": "node",
      "id": 1921047579,
      "lat": -41.4530359,
      "lon": 147.1399407,
      "tags": {
        "amenity": "fast_food",
        "name": "Thistle Street Newsagency & Takeaway"
      }
    },
    {
      "type": "node",
      "id": 1921059766,
      "lat": -41.4587057,
      "lon": 147.153903,
      "tags": {
        "amenity": "fast_food",
        "name": "Five Ways Takeaway & Essentials"
      }
    },
    {
      "type": "node",
      "id": 1921091672,
      "lat": -41.411045,
      "lon": 147.132151,
      "tags": {
        "amenity": "fast_food",
        "name": "Invermay Takeaway"
      }
    },
    {
      "type": "node",
      "id": 1921095420,
      "lat": -41.4640483,
      "lon": 147.1586863,
      "tags": {
        "amenity": "fast_food",
        "cuisine": "fish",
        "name": "Meadows Fish & Chips",
        "toilets:wheelchair": "no",
        "wheelchair": "yes"
      }
    },
    {
      "type": "node",
      "id": 1921106235,
      "lat": -41.4402816,
      "lon": 147.1390396,
      "tags": {
        "amenity": "fast_food",
        "name": "Picnics"
      }
    },
    {
      "type": "node",
      "id": 1921132056,
      "lat": -41.4255657,
      "lon": 147.1744544,
      "tags": {
        "amenity": "fast_food",
        "name": "Ravenswood Takeaway"
      }
    },
    {
      "type": "node",
      "id": 1921236965,
      "lat": -41.4703879,
      "lon": 147.1381211,
      "tags": {
        "amenity": "fast_food"
      }
    },
    {
      "type": "node",
      "id": 1921314949,
      "lat": -41.4391215,
      "lon": 147.1366245,
      "tags": {
        "amenity": "fast_food",
        "cuisine": "chinese",
        "name": "Dave's Noodles"
      }
    },
    {
      "type": "node",
      "id": 1921328271,
      "lat": -41.4064858,
      "lon": 147.132882,
      "tags": {
        "amenity": "fast_food",
        "cuisine": "chinese",
        "name": "Dave's Noodles"
      }
    },
    {
      "type": "node",
      "id": 1921369839,
      "lat": -41.4339715,
      "lon": 147.1416172,
      "tags": {
        "amenity": "restaurant",
        "cuisine": "chinese",
        "name": "Hoong Fatt Chinese Restaurant and Takeaway"
      }
    },
    {
      "type": "node",
      "id": 1921371330,
      "lat": -41.4339112,
      "lon": 147.1417138,
      "tags": {
        "amenity": "fast_food",
        "name": "City Park Store"
      }
    },
    {
      "type": "node",
      "id": 1921381770,
      "lat": -41.4188711,
      "lon": 147.1750727,
      "tags": {
        "addr:housenumber": "2",
        "addr:postcode": "7250",
        "addr:state": "TAS",
        "addr:street": "Prossers Forest Road",
        "addr:suburb": "Ravenswood",
        "addr:unit": "9",
        "amenity": "fast_food",
        "name": "Eastside Milk Bar"
      }
    },
    {
      "type": "node",
      "id": 1921382114,
      "lat": -41.4184146,
      "lon": 147.1751478,
      "tags": {
        "addr:housenumber": "2",
        "addr:postcode": "7250",
        "addr:state": "TAS",
        "addr:street": "Prossers Forest Road",
        "addr:suburb": "Ravenswood",
        "addr:unit": "2",
        "amenity": "cafe",
        "cuisine": "coffee_shop",
        "name": "West's Bakery"
      }
    },
    {
      "type": "node",
      "id": 1921384013,
      "lat": -41.439199,
      "lon": 147.1388886,
      "tags": {
        "addr:housenumber": "101",
        "addr:postcode": "7250",
        "addr:state": "TAS",
        "addr:street": "York Street",
        "addr:suburb": "Launceston",
        "amenity": "cafe",
        "cuisine": "coffee_shop",
        "name": "Ellie Mays On York"
      }
    },
    {
      "type": "node",
      "id": 1921401967,
      "lat": -41.4386677,
      "lon": 147.131236,
      "tags": {
        "amenity": "restaurant",
        "cuisine": "fish",
        "name": "Hallam's Waterfront Seafood Restaurant"
      }
    },
    {
      "type": "node",
      "id": 1921405442,
      "lat": -41.4297807,
      "lon": 147.1381948,
      "tags": {
        "amenity": "fast_food",
        "name": "The House of Spuds"
      }
    },
    {
      "type": "node",
      "id": 1921411179,
      "lat": -41.4288705,
      "lon": 147.1379123,
      "tags": {
        "amenity": "restaurant",
        "cuisine": "chinese",
        "name": "Me Wah Restaurant"
      }
    },
    {
      "type": "node",
      "id": 1921419706,
      "lat": -41.4295182,
      "lon": 147.1484098,
      "tags": {
        "amenity": "fast_food",
        "name": "Mr Chippys"
      }
    },
    {
      "type": "node",
      "id": 1922677921,
      "lat": -41.4397199,
      "lon": 147.1387691,
      "tags": {
        "addr:housenumber": "136",
        "addr:postcode": "7250",
        "addr:state": "TAS",
        "addr:street": "Charles Street",
        "addr:suburb": "Launceston",
        "amenity": "fast_food",
        "cuisine": "pizza",
        "name": "Pizzakom",
        "opening_hours": "We-Th 20:00-29:00, Fr-Sa 20:00-30:00"
      }
    },
    {
      "type": "node",
      "id": 1922742211,
      "lat": -41.4642775,
      "lon": 147.1587318,
      "tags": {
        "amenity": "fast_food",
        "name": "Praties",
        "toilets:wheelchair": "no",
        "wheelchair": "yes"
      }
    },
    {
      "type": "node",
      "id": 1922908692,
      "lat": -41.4118161,
      "lon": 147.1324672,
      "tags": {
        "amenity": "fast_food",
        "name": "Rite Bite"
      }
    },
    {
      "type": "node",
      "id": 1922928679,
      "lat": -41.4395225,
      "lon": 147.1386001,
      "tags": {
        "amenity": "fast_food",
        "cuisine": "kebab",
        "name": "King of Kebabs"
      }
    },
    {
      "type": "node",
      "id": 1922974835,
      "lat": -41.3774101,
      "lon": 147.1292106,
      "tags": {
        "amenity": "fast_food",
        "name": "Spider's North"
      }
    },
    {
      "type": "node",
      "id": 1923004701,
      "lat": -41.537816,
      "lon": 147.1999515,
      "tags": {
        "amenity": "fast_food",
        "name": "Annie's Takeaway & Cafe"
      }
    },
    {
      "type": "node",
      "id": 1923103505,
      "lat": -41.4824403,
      "lon": 147.1672995,
      "tags": {
        "amenity": "fast_food",
        "name": "Youngtown Takeaway"
      }
    },
    {
      "type": "node",
      "id": 1923118172,
      "lat": -41.5977423,
      "lon": 147.1213364,
      "tags": {
        "amenity": "fast_food",
        "cuisine": "chinese",
        "name": "Chinese Big Wok"
      }
    },
    {
      "type": "node",
      "id": 1923141420,
      "lat": -41.4665739,
      "lon": 147.1601348,
      "tags": {
        "amenity": "fast_food",
        "cuisine": "seafood",
        "name": "Kings Meadows Seafood"
      }
    },
    {
      "type": "node",
      "id": 1923157022,
      "lat": -41.5965791,
      "lon": 147.1213247,
      "tags": {
        "amenity": "fast_food",
        "name": "Longford Milk Bar & Takeaways"
      }
    },
    {
      "type": "node",
      "id": 1923194743,
      "lat": -41.4673404,
      "lon": 147.1600802,
      "tags": {
        "amenity": "fast_food",
        "name": "Pasta Gourmet & Coffee House"
      }
    },
    {
      "type": "node",
      "id": 1923214584,
      "lat": -41.5768685,
      "lon": 147.1747766,
      "tags": {
        "amenity": "fast_food",
        "cuisine": "pizza",
        "name": "Perth Pizzeria"
      }
    },
    {
      "type": "node",
      "id": 1923224640,
      "lat": -41.4703836,
      "lon": 147.1340886,
      "tags": {
        "amenity": "fast_food",
        "cuisine": "seafood",
        "name": "Prospect Fish Shop"
      }
    },
    {
      "type": "node",
      "id": 1923228182,
      "lat": -41.587768,
      "lon": 147.1194061,
      "tags": {
        "amenity": "fast_food",
        "name": "Rebel Roadhouse"
      }
    },
    {
      "type": "node",
      "id": 1923245244,
      "lat": -41.4702892,
      "lon": 147.1370458,
      "tags": {
        "amenity": "fast_food",
        "cuisine": "pizza",
        "name": "Big Bite Pizzeria"
      }
    },
    {
      "type": "node",
      "id": 1923260081,
      "lat": -41.4274516,
      "lon": 147.1374185,
      "tags": {
        "amenity": "fast_food",
        "name": "Bizy Bee"
      }
    },
    {
      "type": "node",
      "id": 1923268578,
      "lat": -41.4649363,
      "lon": 147.1592539,
      "tags": {
        "amenity": "fast_food",
        "cuisine": "pizza",
        "name": "Donati's Pizza Bar",
        "website": "www.donatispizza.com.au"
      }
    },
    {
      "type": "node",
      "id": 1923272771,
      "lat": -41.4529409,
      "lon": 147.1438774,
      "tags": {
        "amenity": "fast_food",
        "cuisine": "chinese",
        "name": "Jin Long Men"
      }
    },
    {
      "type": "node",
      "id": 1923280083,
      "lat": -41.4395018,
      "lon": 147.1321266,
      "tags": {
        "amenity": "cafe",
        "cuisine": "coffee_shop",
        "name": "Tio Rico Café and Takeaway",
        "opening_hours": "Mo-Th 08:00-16:00; Fr 08:00-14:30,17:00-20:00; Sa,Su,PH off"
      }
    },
    {
      "type": "node",
      "id": 1923280477,
      "lat": -41.4394797,
      "lon": 147.1320461,
      "tags": {
        "amenity": "fast_food",
        "name": "Tio Rico Cafe and Takeaway"
      }
    },
    {
      "type": "node",
      "id": 1923285728,
      "lat": -41.4467587,
      "lon": 147.1394535,
      "tags": {
        "amenity": "fast_food",
        "name": "Toddle Inn",
        "wheelchair": "no"
      }
    },
    {
      "type": "node",
      "id": 1924316463,
      "lat": -41.4373699,
      "lon": 147.1390211,
      "tags": {
        "amenity": "fast_food",
        "cuisine": "ice_cream",
        "name": "Wendys",
        "not:brand:wikidata": "Q550258"
      }
    },
    {
      "type": "node",
      "id": 1924327055,
      "lat": -41.4288847,
      "lon": 147.1485517,
      "tags": {
        "amenity": "ice_cream",
        "name": "Wendys",
        "website": "https://www.wendys.com.au/"
      }
    },
    {
      "type": "node",
      "id": 1924371411,
      "lat": -41.4669593,
      "lon": 147.1588335,
      "tags": {
        "amenity": "ice_cream",
        "brand:wikidata": "Q7982571",
        "name": "Wendy's Milk Bar",
        "not:brand:wikidata": "Q550258",
        "website": "https://wendysmilkbar.com/"
      }
    },
    {
      "type": "node",
      "id": 1924380294,
      "lat": -41.4671764,
      "lon": 147.1587369,
      "tags": {
        "amenity": "fast_food",
        "brand": "Donut King",
        "brand:wikidata": "Q5296921",
        "brand:wikipedia": "en:Donut King",
        "cuisine": "donut;coffee_shop",
        "name": "Donut King",
        "takeaway": "yes"
      }
    },
    {
      "type": "node",
      "id": 1924391592,
      "lat": -41.4517197,
      "lon": 147.1422747,
      "tags": {
        "amenity": "fast_food",
        "brand": "The Cheesecake Shop",
        "brand:wikidata": "Q117717103",
        "name": "The Cheesecake Shop",
        "shop": "bakery",
        "website": "https://www.cheesecake.com.au/"
      }
    },
    {
      "type": "node",
      "id": 1924515029,
      "lat": -41.4055602,
      "lon": 147.1328966,
      "tags": {
        "amenity": "fast_food",
        "brand": "Noodle Box",
        "brand:wikidata": "Q7049671",
        "brand:wikipedia": "en:Noodle Box",
        "cuisine": "noodle",
        "name": "Noodle Box",
        "takeaway": "yes"
      }
    },
    {
      "type": "node",
      "id": 1924641316,
      "lat": -41.4679848,
      "lon": 147.1604206,
      "tags": {
        "amenity": "fast_food",
        "brand": "Noodle Box",
        "brand:wikidata": "Q7049671",
        "brand:wikipedia": "en:Noodle Box",
        "cuisine": "noodle",
        "name": "Noodle Box",
        "takeaway": "yes",
        "website": "https://www.noodlebox.com.au/"
      }
    },
    {
      "type": "node",
      "id": 1924661374,
      "lat": -41.4665875,
      "lon": 147.1588737,
      "tags": {
        "brand": "Banjo's Bakery Cafe",
        "brand:wikidata": "Q105904686",
        "name": "Banjo's Bakery Cafe",
        "shop": "bakery",
        "website": "https://www.banjos.com.au/"
      }
    },
    {
      "type": "node",
      "id": 1928807063,
      "lat": -41.1873431,
      "lon": 146.3713823,
      "tags": {
        "addr:housenumber": "175",
        "addr:postcode": "7310",
        "addr:state": "TAS",
        "addr:street": "Tarleton Street",
        "addr:suburb": "East Devonport",
        "name": "All Things Nice Bakery",
        "opening_hours": "24/7",
        "shop": "bakery"
      }
    },
    {
      "type": "node",
      "id": 1929755604,
      "lat": -41.4594795,
      "lon": 147.1555717,
      "tags": {
        "amenity": "fast_food",
        "contact:facebook": "https://www.facebook.com/TinniesPies",
        "name": "Tinnies Pies"
      }
    },
    {
      "type": "node",
      "id": 1929846857,
      "lat": -41.4441433,
      "lon": 147.137298,
      "tags": {
        "amenity": "restaurant",
        "cuisine": "chinese",
        "name": "Dynasty Chinese Restaurant",
        "wheelchair": "yes",
        "wheelchair:description": "No designated disabled parking"
      }
    },
    {
      "type": "node",
      "id": 1929858802,
      "lat": -41.4352855,
      "lon": 147.1410456,
      "tags": {
        "amenity": "restaurant",
        "name": "Mekong Vietnamese Restaurant"
      }
    },
    {
      "type": "node",
      "id": 1929862059,
      "lat": -41.4358954,
      "lon": 147.1399378,
      "tags": {
        "amenity": "restaurant",
        "name": "Pierre’s"
      }
    },
    {
      "type": "node",
      "id": 1929878087,
      "lat": -41.4399885,
      "lon": 147.138956,
      "tags": {
        "addr:housenumber": "146-148",
        "addr:postcode": "7250",
        "addr:state": "TAS",
        "addr:street": "Charles Street",
        "addr:suburb": "Launceston",
        "amenity": "restaurant",
        "cuisine": "indian",
        "name": "AAJ India Café & Restaurant"
      }
    },
    {
      "type": "node",
      "id": 1929916285,
      "lat": -41.4353807,
      "lon": 147.139618,
      "tags": {
        "amenity": "restaurant",
        "name": "Black Cow Bistro",
        "wheelchair": "yes"
      }
    },
    {
      "type": "node",
      "id": 1929954578,
      "lat": -41.439996,
      "lon": 147.1393383,
      "tags": {
        "amenity": "restaurant",
        "cuisine": "chinese",
        "name": "Canton Chinese Restaurant"
      }
    },
    {
      "type": "node",
      "id": 1929984311,
      "lat": -41.4322425,
      "lon": 147.140097,
      "tags": {
        "amenity": "restaurant",
        "name": "Larceny's Restaurant",
        "website": "https://www.cityparkgrand.com.au/index.php/Restaurant/larcenys_restaurant_launceston"
      }
    },
    {
      "type": "node",
      "id": 1929994278,
      "lat": -41.4333336,
      "lon": 147.1328512,
      "tags": {
        "amenity": "restaurant",
        "name": "Levee Food Co",
        "website": "https://www.leveefoodco.com.au/"
      }
    },
    {
      "type": "node",
      "id": 1930057264,
      "lat": -41.4709423,
      "lon": 147.1360812,
      "tags": {
        "amenity": "restaurant",
        "name": "The Tudor Bistro"
      }
    },
    {
      "type": "node",
      "id": 1930066267,
      "lat": -41.4382083,
      "lon": 147.1421379,
      "tags": {
        "amenity": "restaurant",
        "cuisine": "indian",
        "name": "Pickled Evenings"
      }
    },
    {
      "type": "node",
      "id": 1930073057,
      "lat": -41.4391856,
      "lon": 147.1423871,
      "tags": {
        "amenity": "restaurant",
        "name": "QC Brasserie"
      }
    },
    {
      "type": "node",
      "id": 1930074973,
      "lat": -41.4393968,
      "lon": 147.1421292,
      "tags": {
        "amenity": "restaurant",
        "name": "Three Steps on George Bar & Restaurant"
      }
    },
    {
      "type": "node",
      "id": 1930081781,
      "lat": -41.5151391,
      "lon": 147.0623287,
      "tags": {
        "amenity": "restaurant",
        "name": "Rutherglen Bar & Bistro"
      }
    },
    {
      "type": "node",
      "id": 1930084237,
      "lat": -41.4372,
      "lon": 147.1367534,
      "tags": {
        "amenity": "restaurant",
        "name": "Star of Siam"
      }
    },
    {
      "type": "node",
      "id": 1930088290,
      "lat": -41.4219549,
      "lon": 147.1109461,
      "tags": {
        "amenity": "restaurant",
        "name": "Steve's Grill & Restaurant"
      }
    },
    {
      "type": "node",
      "id": 1930090464,
      "lat": -41.4418427,
      "lon": 147.1608844,
      "tags": {
        "addr:housenumber": "158",
        "addr:postcode": "7250",
        "addr:state": "TAS",
        "addr:street": "Elphin Road",
        "addr:suburb": "Newstead",
        "amenity": "restaurant",
        "name": "Tasmandu A Taste of Nepal",
        "phone": "+61 3 6379 4906"
      }
    },
    {
      "type": "node",
      "id": 1930092469,
      "lat": -41.48509,
      "lon": 147.1078611,
      "tags": {
        "amenity": "restaurant",
        "name": "Terrace Restaurant"
      }
    },
    {
      "type": "node",
      "id": 1931411405,
      "lat": -41.3715377,
      "lon": 147.04792,
      "tags": {
        "amenity": "cafe",
        "name": "Barrel Room Cafe and Cellar Door"
      }
    },
    {
      "type": "node",
      "id": 1931452947,
      "lat": -41.3513188,
      "lon": 147.002408,
      "tags": {
        "amenity": "restaurant",
        "name": "Alpenrose Restaurant & Bar"
      }
    },
    {
      "type": "node",
      "id": 1931498335,
      "lat": -41.5888669,
      "lon": 147.1204541,
      "tags": {
        "amenity": "restaurant",
        "name": "Chequered Flag Bistro"
      }
    },
    {
      "type": "node",
      "id": 1931524498,
      "lat": -41.4361327,
      "lon": 147.1419271,
      "tags": {
        "amenity": "restaurant",
        "name": "Snappers Restaurant"
      }
    },
    {
      "type": "node",
      "id": 1931545494,
      "lat": -41.4460097,
      "lon": 147.1436693,
      "tags": {
        "amenity": "restaurant",
        "name": "Restaurant Esca"
      }
    },
    {
      "type": "node",
      "id": 1931551025,
      "lat": -41.4347103,
      "lon": 147.1405642,
      "tags": {
        "amenity": "restaurant",
        "name": "Avenue Restaurant"
      }
    },
    {
      "type": "node",
      "id": 1931570159,
      "lat": -41.4329354,
      "lon": 147.1406226,
      "tags": {
        "amenity": "restaurant",
        "cuisine": "japanese",
        "name": "Kai-Zen - Sushi Bar, Japanese Restaurant"
      }
    },
    {
      "type": "node",
      "id": 1931628467,
      "lat": -41.4407977,
      "lon": 147.1303061,
      "tags": {
        "addr:housenumber": "147",
        "addr:postcode": "7250",
        "addr:state": "TAS",
        "addr:street": "Paterson Street",
        "addr:suburb": "Launceston",
        "amenity": "restaurant",
        "name": "Kings Bridge Bar & Restaurant"
      }
    },
    {
      "type": "node",
      "id": 1931654787,
      "lat": -41.4357038,
      "lon": 147.1414326,
      "tags": {
        "amenity": "restaurant",
        "name": "The Butchers Hook"
      }
    },
    {
      "type": "node",
      "id": 1931663086,
      "lat": -41.4361215,
      "lon": 147.1401372,
      "tags": {
        "amenity": "bar",
        "name": "Alchemy Bar & Restaurant"
      }
    },
    {
      "type": "node",
      "id": 1931721565,
      "lat": -41.4362728,
      "lon": 147.1392626,
      "tags": {
        "amenity": "restaurant",
        "cuisine": "asian",
        "name": "Bao Time"
      }
    },
    {
      "type": "node",
      "id": 1931727953,
      "lat": -41.4376661,
      "lon": 147.1367389,
      "tags": {
        "amenity": "fast_food",
        "cuisine": "japanese",
        "name": "Sushi To Go"
      }
    },
    {
      "type": "node",
      "id": 1931742370,
      "lat": -41.4393289,
      "lon": 147.1418547,
      "tags": {
        "amenity": "restaurant",
        "name": "Colonial On Elizabeth"
      }
    },
    {
      "type": "node",
      "id": 1931757812,
      "lat": -41.4316543,
      "lon": 147.1316278,
      "tags": {
        "amenity": "restaurant",
        "name": "The Boathouse on Northbank",
        "website": "northboathouse.weebly.com"
      }
    },
    {
      "type": "node",
      "id": 1931764371,
      "lat": -41.3521366,
      "lon": 147.029054,
      "tags": {
        "amenity": "restaurant",
        "name": "The House Cafe Restaurant"
      }
    },
    {
      "type": "node",
      "id": 1931768032,
      "lat": -41.4907126,
      "lon": 147.1230277,
      "tags": {
        "amenity": "restaurant",
        "name": "Iron Horse Bar & Grill"
      }
    },
    {
      "type": "node",
      "id": 1931776629,
      "lat": -41.4802022,
      "lon": 147.1675508,
      "tags": {
        "amenity": "restaurant",
        "name": "Abel Tasman Airport Motor Inn Restaurant"
      }
    },
    {
      "type": "node",
      "id": 1931782871,
      "lat": -41.4856503,
      "lon": 147.108449,
      "tags": {
        "amenity": "restaurant",
        "name": "Bolters Pizzeria"
      }
    },
    {
      "type": "node",
      "id": 1931783811,
      "lat": -41.4856623,
      "lon": 147.1079285,
      "tags": {
        "amenity": "restaurant",
        "name": "Links Restaurant"
      }
    },
    {
      "type": "node",
      "id": 1931793938,
      "lat": -41.4854414,
      "lon": 147.1078801,
      "tags": {
        "amenity": "restaurant",
        "name": "Villa Italiana"
      }
    },
    {
      "type": "node",
      "id": 1932985394,
      "lat": -41.4397787,
      "lon": 147.1392043,
      "tags": {
        "amenity": "pub",
        "name": "Hotel Tasmania"
      }
    },
    {
      "type": "node",
      "id": 1933250805,
      "lat": -41.4189474,
      "lon": 147.1855793,
      "tags": {
        "amenity": "pub",
        "name": "Sunnyhill Hotel"
      }
    },
    {
      "type": "node",
      "id": 1933262795,
      "lat": -41.4347315,
      "lon": 147.13993,
      "tags": {
        "amenity": "pub"
      }
    },
    {
      "type": "node",
      "id": 1933294267,
      "lat": -41.4526404,
      "lon": 147.1436136,
      "tags": {
        "amenity": "pub",
        "contact:facebook": "https://www.facebook.com/theallyearroundtavern",
        "name": "All Year Round Tavern"
      }
    },
    {
      "type": "node",
      "id": 1934419420,
      "lat": -41.4375877,
      "lon": 147.1412746,
      "tags": {
        "amenity": "pub",
        "name": "O'Keefes Hotel",
        "website": "http://www.okeefes.com.au/"
      }
    },
    {
      "type": "node",
      "id": 1934430094,
      "lat": -41.4103247,
      "lon": 147.131922,
      "tags": {
        "amenity": "pub",
        "name": "Retreat Hotel"
      }
    },
    {
      "type": "node",
      "id": 1934456465,
      "lat": -41.4338969,
      "lon": 147.1357736,
      "tags": {
        "amenity": "restaurant",
        "name": "Market Square Restaurant & Bar"
      }
    },
    {
      "type": "node",
      "id": 1934460199,
      "lat": -41.577056,
      "lon": 147.1744877,
      "tags": {
        "amenity": "pub",
        "name": "Queens Head Inn"
      }
    },
    {
      "type": "node",
      "id": 1934473277,
      "lat": -41.5962313,
      "lon": 147.1214267,
      "tags": {
        "amenity": "pub",
        "name": "Blenheim Inn"
      }
    },
    {
      "type": "node",
      "id": 1934482880,
      "lat": -41.4642066,
      "lon": 147.1453954,
      "tags": {
        "amenity": "restaurant",
        "name": "City Lights Restaurant"
      }
    },
    {
      "type": "node",
      "id": 1934491871,
      "lat": -41.4286767,
      "lon": 147.1378314,
      "tags": {
        "amenity": "pub",
        "name": "Park Tavern",
        "shop": "bookmaker"
      }
    },
    {
      "type": "node",
      "id": 1934499338,
      "lat": -41.5716476,
      "lon": 147.2478959,
      "tags": {
        "amenity": "pub",
        "name": "Prince Of Wales"
      }
    },
    {
      "type": "node",
      "id": 1934500752,
      "lat": -41.5708419,
      "lon": 147.2493463,
      "tags": {
        "amenity": "pub",
        "name": "Clarendon Arms Hotel",
        "opening_hours": "We-Su 09:00-16:00"
      }
    },